~Version Information Block
VERS .                  2.0:  CWLS LOG ASCII STANDARD - VERSION 2.0
WRAP .                   NO:  One line per depth step
~Well Information Block
#MNEM.UNIT        Data Type   Information
#---------- ----------------  -----------
STRT .FT            1000.00:  START DEPTH
STOP .FT            1302.50:  STOP DEPTH
STEP .FT               0.50:  STEP
NULL .              -999.25:  NULL VALUE
COMP .                     :  COMPANY
WELL .                CO3_1:  WELL
FLD  .                     :  FIELD
LOC  .                     :  LOCATION
CTRY .                     :  COUNTRY
STAT .                     :  STATE
CNTY .                     :  COUNTY
SRVC .                     :  SERVICE COMPANY
DATE .                     :  DATE
API  .                     :  API NUMBER
UWI  .                     :  UNIQUE WELL ID
~Curve Information Block
#MNEM.UNIT         API CODE   Curve Description
#---------- ----------------  -----------------
DEPTH.FT                   :  
CALI .IN                   :  GR*0 + 8.5
DT   .US/F                 :  DT+1
GR   .GAPI                 :  Created using text insert
ILD  .OHMM                 :  Created using text insert
NPHI .V/V                  :  Created using text insert
PEF  .B/E                  :  PEF-5
PHIT .V/V                  :  Total Porosity
RHOB .G/C3                 :  Created using text insert
RHOMAA.G/C3                 :  Apparent matrix density
TNPH .V/V                  :  Neutron porosity log
~Parameter Information Block
#MNEM.UNIT            Value   Description
#---------- ----------------  -----------
A    .                    1:  Tortuosity constant
ANAL_DATE.     26-Mar-2021 11:17:11:  Analysis Date
ANAL_USERID.                craig:  Analysis User Identifier
SOCN .IN                0.5:  Standoff for neutron tool
TLI  .FT               1000:  Top log interval (MD)
TLT  .DEGF              165:  Top log interval temperature
~Other Information Block
# 
~A       DEPTH           CALI             DT             GR            ILD           NPHI            PEF           PHIT           RHOB         RHOMAA           TNPH 
# ...
       1220.50         8.5000        62.5938        20.4479        16.5539       0.103533         5.1686       0.077434         2.6121      2753.8982       0.104518
       1221.00         8.5000        63.1875        20.4819        16.6810       0.109033         5.0544       0.081940         2.6036      2752.5801       0.109512
       1221.50         8.5000        63.5938        20.9065        16.8022       0.115900         4.8703       0.088578         2.5868      2747.8354       0.115747
       1222.00         8.5000        64.3750        21.9410        17.1557       0.118900         5.0574       0.091247         2.5710      2740.4448       0.118471
       1222.50         8.5000        64.3750        22.5775        17.0149       0.119600         4.8762       0.092606         2.5654      2737.4922       0.119107
       1223.00         8.5000        63.7812        23.2646        16.7153       0.119133         5.0852       0.089167         2.5691      2739.4365       0.118683
       1223.50         8.5000        63.0000        23.2271        16.9267       0.117733         5.0737       0.084672         2.5692      2737.9580       0.117412
       1224.00         8.5000        62.7812        22.2300        17.1111       0.116333         4.9099       0.086981         2.5601      2730.3035       0.116140
       1224.50         8.5000        62.1875        21.3905        17.5862       0.113600         4.9036       0.088195         2.5463      2718.0181       0.113659
       1225.00         8.5000        61.5938        20.5345        18.0406       0.112500         5.1256       0.085739         2.5535      2721.6768       0.112660
       1225.50         8.5000        61.0000        20.8313        18.4703       0.109400         5.0147       0.082848         2.5613      2724.3928       0.109845
       1226.00         8.5000        60.7812        21.7633        18.7035       0.105933         5.0570       0.077705         2.5769      2732.0271       0.106697
       1226.50         8.5000        60.0000        22.5012        18.7029       0.101433         5.0218       0.073276         2.5868      2735.3259       0.102611
       1227.00         8.5000        59.5938        23.0405        18.7341       0.096367         5.0545       0.068515         2.5981      2739.0862       0.098011
       1227.50         8.5000        58.7812        22.2278        18.6366       0.088800         5.2559       0.062467         2.6145      2744.7561       0.091392
       1228.00         8.5000        57.7812        21.6782        18.6393       0.083033         5.2311       0.058535         2.6256      2748.1365       0.086548
       1228.50         8.5000        57.1875        20.3362        18.8210       0.078233         5.1758       0.054862         2.6442      2756.6035       0.082516
       1229.00         8.5000        56.7812        20.4042        18.9684       0.077033         5.2439       0.051138         2.6608      2766.5449       0.081508
       1229.50         8.5000        56.7812        21.0011        19.1972       0.077133         5.2669       0.051988         2.6496      2758.9697       0.081592
       1230.00         8.5000        56.3750        21.4050        19.1532       0.076133         5.3475       0.052193         2.6385      2750.2649       0.080752
       1230.50         8.5000        56.0000        21.2431        18.7713       0.074867         5.0910       0.052635         2.6347      2746.3098       0.079688
       1231.00         8.5000        55.1875        21.3893        18.3005       0.072133         5.2807       0.047855         2.6466      2751.6731       0.077392
       1231.50         8.5000        55.1875        22.2069        17.6642       0.073667         5.2683       0.046924         2.6545      2758.7971       0.078680
       1232.00         8.5000        55.5938        22.5479        17.0063       0.073133         5.1372       0.049114         2.6401      2748.2505       0.078232
       1232.50         8.5000        56.0000        22.0363        16.3697       0.071733         5.2901       0.049044         2.6372      2744.6821       0.077056
       1233.00         8.5000        56.3750        21.2670        15.9691       0.070067         5.0971       0.048778         2.6421      2746.1667       0.075656
       1233.50         8.5000        56.1875        20.9917        15.7166       0.071600         5.1335       0.047120         2.6614      2761.4741       0.076944
       1234.00         8.5000        56.7812        21.4322        15.5241       0.076000         5.3576       0.050597         2.6495      2757.8086       0.080640
       1234.50         8.5000        58.0000        21.2986        15.2541       0.082700         5.1433       0.057860         2.6358      2754.8391       0.086268
       1235.00         8.5000        59.7812        21.4634        15.0335       0.086700         5.1577       0.065275         2.6174      2745.2351       0.089628
       1235.50         8.5000        60.7812        21.6568        15.1910       0.088433         5.1211       0.068388         2.6174      2746.4905       0.091084
       1236.00         8.5000        60.7812        22.0440        15.3637       0.086400         5.1546       0.067574         2.6143      2742.8975       0.089376
       1236.50         8.5000        61.0000        21.1731        15.7074       0.085967         4.9759       0.069462         2.6122      2741.0725       0.089012
       1237.00         8.5000        60.7812        19.5455        15.9919       0.089367         5.1802       0.072391         2.6067      2739.8921       0.091868
       1237.50         8.5000        61.3750        19.3836        16.1223       0.089800         5.2668       0.073031         2.6023      2737.1985       0.092232
       1238.00         8.5000        62.0000        23.1944        16.5175       0.076950         5.2390       0.063450         2.6119      2732.6199       0.081438
       1238.50         8.5000        61.7812        24.0715        16.7743       0.078650         5.0846       0.063796         2.6101      2733.3931       0.082866
       1239.00         8.5000        61.0000        25.0919        17.0638       0.081400         5.1141       0.062278         2.6133      2737.8352       0.085176
       1239.50         8.5000        60.3750        25.5251        17.5088       0.084500         5.1874       0.061075         2.6133      2740.6956       0.087780
       1240.00         8.5000        59.7812        25.6470        17.8909       0.089400         5.0727       0.062545         2.6054      2739.0076       0.091896
       1240.50         8.5000        59.5938        24.9048        17.8202       0.094150         5.1791       0.064367         2.6054      2742.4243       0.095998
       1241.00         8.5000        59.5938        24.2672        17.7610       0.098450         5.1557       0.066187         2.6107      2749.5503       0.099903
       1241.50         8.5000        60.0000        24.0523        17.8231       0.101000         5.0588       0.068925         2.6055      2747.8398       0.102218
       1242.00         8.5000        59.5938        23.8850        17.8925       0.100200         5.0544       0.070774         2.5910      2737.3757       0.101492
       1242.50         8.5000        58.7812        24.2758        18.3322       0.098600         5.0865       0.070851         2.5814      2729.6335       0.100039
       1243.00         8.5000        58.0000        24.6481        18.4872       0.096650         5.1677       0.069598         2.5805      2727.2917       0.098268
       1243.50         8.5000        56.5938        24.9708        18.8386       0.095200         5.0230       0.067060         2.5872      2730.8628       0.096952
       1244.00         8.5000        55.5938        27.3707        22.3820       0.096500         5.1553       0.062697         2.5953      2737.3960       0.098132
       1244.50         8.5000        55.3750        27.2195        23.0110       0.096300         5.1699       0.064114         2.5837      2729.2878       0.097950
