~Version Information Block
VERS .                  2.0:  CWLS LOG ASCII STANDARD - VERSION 2.0
WRAP .                   NO:  One line per depth step
~Well Information Block
#MNEM.UNIT        Data Type   Information
#---------- ----------------  -----------
STRT .FT            1000.00:  START DEPTH
STOP .FT            1302.50:  STOP DEPTH
STEP .FT               0.50:  STEP
NULL .              -999.25:  NULL VALUE
COMP .                     :  COMPANY
WELL .                CO3_1:  WELL
FLD  .                     :  FIELD
LOC  .                     :  LOCATION
CTRY .                     :  COUNTRY
STAT .                     :  STATE
CNTY .                     :  COUNTY
SRVC .                     :  SERVICE COMPANY
DATE .                     :  DATE
API  .                     :  API NUMBER
UWI  .                     :  UNIQUE WELL ID
~Curve Information Block
#MNEM.UNIT         API CODE   Curve Description
#---------- ----------------  -----------------
DEPTH.FT                   :  
CALI .IN                   :  GR*0 + 8.5
DT   .US/F                 :  DT+1
GR   .GAPI                 :  Created using text insert
ILD  .OHMM                 :  Created using text insert
NPHI .V/V                  :  Created using text insert
PEF  .B/E                  :  PEF-5
PHIT .V/V                  :  Total Porosity
RHOB .G/C3                 :  Created using text insert
RHOMAA.G/C3                 :  Apparent matrix density
TNPH .V/V                  :  Neutron porosity log
~Parameter Information Block
#MNEM.UNIT            Value   Description
#---------- ----------------  -----------
A    .                    1:  Tortuosity constant
ANAL_DATE.     26-Mar-2021 11:17:11:  Analysis Date
ANAL_USERID.                craig:  Analysis User Identifier
SOCN .IN                0.5:  Standoff for neutron tool
TLI  .FT               1000:  Top log interval (MD)
TLT  .DEGF              165:  Top log interval temperature
~Other Information Block
# 
~A       DEPTH           CALI             DT             GR            ILD           NPHI            PEF           PHIT           RHOB         RHOMAA           TNPH 
# ...
       1073.50         8.5000        66.1875        17.5371        86.2016       0.229275         4.5602       0.177872         2.3858      2739.8362       0.224143
       1074.00         8.5000        64.7812        17.0527        85.1571       0.225900         4.4386       0.176620         2.3849      2734.7698       0.220734
       1074.50         8.5000        65.3750        16.9799        85.3024       0.224700         4.6143       0.173169         2.3891      2736.0903       0.219522
       1075.00         8.5000        66.0000        16.5150        85.9168       0.225650         4.5009       0.176276         2.3865      2735.5210       0.220482
       1075.50         8.5000        66.5938        16.4668        86.6990       0.222425         4.7052       0.170465         2.4004      2740.9656       0.217224
       1076.00         8.5000        67.5625        15.9643        86.1134       0.226250         4.5706       0.176312         2.3946      2741.9106       0.221087
       1076.50         8.5000        68.0000        16.3224        84.6775       0.230650         4.6768       0.176846         2.3944      2747.8960       0.225531
       1077.00         8.5000        69.0000        16.4812        58.2831       0.234450         4.4850       0.182162         2.3953      2754.3804       0.229369
       1077.50         8.5000        70.3750        16.5733        65.1700       0.235125         4.5524       0.180683         2.4035      2761.0676       0.230051
       1078.00         8.5000        70.3750        16.7468        52.4834       0.233475         4.6855       0.179847         2.3980      2754.7405       0.228385
       1078.50         8.5000        71.1875        16.4670        58.5619       0.231225         4.5009       0.182511         2.3984      2751.5317       0.226112
       1079.00         8.5000        71.1875        16.3466        65.2270       0.228700         4.7188       0.176081         2.4104      2756.0134       0.223562
       1079.50         8.5000        71.1875        15.5670        67.1950       0.227650         4.6729       0.175594         2.4154      2758.2432       0.222502
       1080.00         8.5000        70.3750        14.8789        98.0220       0.225325         4.5239       0.179067         2.4051      2748.0442       0.220153
       1080.50         8.5000        68.1875        14.1280        85.3377       0.221025         4.3979       0.176480         2.4093      2745.4072       0.215810
       1081.00         8.5000        66.5938        13.8894        82.3999       0.212250         4.6977       0.164452         2.4262      2747.2500       0.206947
       1081.50         8.5000        64.3750        14.3010        77.4352       0.204825         4.6093       0.156941         2.4423      2750.7058       0.199448
       1082.00         8.5000        63.3750        14.0084        64.1885       0.200625         4.6615       0.153164         2.4427      2745.6750       0.195206
       1082.50         8.5000        63.7812        13.7949        66.4279       0.198800         4.6614       0.154464         2.4400      2741.7004       0.193363
       1083.00         8.5000        65.5938        13.7980        60.2304       0.201025         4.6422       0.160189         2.4337      2740.0732       0.195610
       1083.50         8.5000        68.0000        14.8895        58.8706       0.204900         4.4923       0.166894         2.4248      2738.9548       0.199524
       1084.00         8.5000        69.5625        15.6557        56.0221       0.207650         4.6310       0.168350         2.4189      2737.8247       0.202302
       1084.50         8.5000        71.1875        16.2123        51.4626       0.206175         4.4557       0.170166         2.4227      2738.9341       0.200812
       1085.00         8.5000        70.5625        16.9447        50.9271       0.204375         4.6433       0.163515         2.4360      2746.0789       0.198994
       1085.50         8.5000        69.1875        16.6888        47.0467       0.203750         4.7961       0.157645         2.4472      2752.4265       0.198362
       1086.00         8.5000        67.5625        16.7746        45.8858       0.202900         4.7903       0.156780         2.4446      2750.0730       0.197504
       1086.50         8.5000        65.3750        16.4861        45.1757       0.201475         4.6491       0.158804         2.4234      2734.0994       0.196065
       1087.00         8.5000        65.5938        16.6588        43.0876       0.199000         4.8270       0.158527         2.4102      2721.6672       0.193565
       1087.50         8.5000        66.3750        16.9834        44.0156       0.202950         4.3816       0.169669         2.3946      2715.8713       0.197554
       1088.00         8.5000        67.3750        17.0069        43.0746       0.203475         4.4232       0.171919         2.3914      2713.9583       0.198085
       1088.50         8.5000        67.5625        17.3380        40.2748       0.204025         4.5888       0.170272         2.3917      2714.7825       0.198640
       1089.00         8.5000        69.7500        17.4351        38.7871       0.201500         4.4937       0.170409         2.4037      2720.5542       0.196090
       1089.50         8.5000        70.5625        17.8845        37.4823       0.204125         4.4701       0.172149         2.4022      2722.2061       0.198741
       1090.00         8.5000        71.7500        18.0794        35.3993       0.204400         4.5232       0.171347         2.4079      2726.9390       0.199019
       1090.50         8.5000        71.3750        18.0031        33.3874       0.207850         4.5143       0.170206         2.4162      2736.2090       0.202503
       1091.00         8.5000        72.0000        17.3265        32.8117       0.208800         4.8085       0.169510         2.4144      2735.9272       0.203463
       1091.50         8.5000        71.7500        16.3868        31.5167       0.214700         4.5117       0.176035         2.4055      2736.1924       0.209422
       1092.00         8.5000        71.7500        15.5202        31.1053       0.220050         4.6029       0.179934         2.3929      2733.1050       0.214826
       1092.50         8.5000        71.0000        15.2579        30.2596       0.223850         4.3694       0.185775         2.3857      2732.8633       0.218663
       1093.00         8.5000        68.7500        15.8749        29.1005       0.222000         4.5366       0.176757         2.3997      2740.1616       0.216795
       1093.50         8.5000        67.1875        16.5394        28.7395       0.212975         4.4806       0.169043         2.4139      2739.9529       0.207680
       1094.00         8.5000        64.0000        17.3905        27.5724       0.199025         4.5432       0.156469         2.4245      2731.5686       0.193590
       1094.50         8.5000        64.0000        18.0141        27.2931       0.189450         4.6590       0.150935         2.4242      2718.0261       0.184127
       1095.00         8.5000        62.3750        18.3645        26.8939       0.185800         4.6776       0.145684         2.4305      2717.2134       0.180689
       1095.50         8.5000        62.3750        18.4636        26.7610       0.185775         4.7358       0.142618         2.4412      2724.4844       0.180665
       1096.00         8.5000        60.7812        18.5215        26.9480       0.183025         4.8353       0.137261         2.4486      2726.0798       0.178075
       1096.50         8.5000        60.5938        18.3557        26.6305       0.178275         4.5583       0.136786         2.4502      2720.6467       0.173600
       1097.00         8.5000        60.5938        18.0286        27.1154       0.176050         4.7136       0.135270         2.4479      2716.2095       0.171504
       1097.50         8.5000        61.1875        18.0593        26.9459       0.174050         4.9075       0.133027         2.4520      2716.5229       0.169620
