~Version Information Block
VERS .                  2.0:  CWLS LOG ASCII STANDARD - VERSION 2.0
WRAP .                   NO:  One line per depth step
~Well Information Block
#MNEM.UNIT        Data Type   Information
#---------- ----------------  -----------
STRT .FT            1000.00:  START DEPTH
STOP .FT            1302.50:  STOP DEPTH
STEP .FT               0.50:  STEP
NULL .              -999.25:  NULL VALUE
COMP .                     :  COMPANY
WELL .                CO3_1:  WELL
FLD  .                     :  FIELD
LOC  .                     :  LOCATION
CTRY .                     :  COUNTRY
STAT .                     :  STATE
CNTY .                     :  COUNTY
SRVC .                     :  SERVICE COMPANY
DATE .                     :  DATE
API  .                     :  API NUMBER
UWI  .                     :  UNIQUE WELL ID
~Curve Information Block
#MNEM.UNIT         API CODE   Curve Description
#---------- ----------------  -----------------
DEPTH.FT                   :  
CALI .IN                   :  GR*0 + 8.5
DT   .US/F                 :  DT+1
GR   .GAPI                 :  Created using text insert
ILD  .OHMM                 :  Created using text insert
NPHI .V/V                  :  Created using text insert
PEF  .B/E                  :  PEF-5
PHIT .V/V                  :  Total Porosity
RHOB .G/C3                 :  Created using text insert
RHOMAA.G/C3                 :  Apparent matrix density
TNPH .V/V                  :  Neutron porosity log
~Parameter Information Block
#MNEM.UNIT            Value   Description
#---------- ----------------  -----------
A    .                    1:  Tortuosity constant
ANAL_DATE.     26-Mar-2021 11:17:11:  Analysis Date
ANAL_USERID.                craig:  Analysis User Identifier
SOCN .IN                0.5:  Standoff for neutron tool
TLI  .FT               1000:  Top log interval (MD)
TLT  .DEGF              165:  Top log interval temperature
~Other Information Block
# 
~A       DEPTH           CALI             DT             GR            ILD           NPHI            PEF           PHIT           RHOB         RHOMAA           TNPH 
# ...
       1245.00         8.5000        55.0000        26.7894        23.6540       0.096800         5.1276       0.062721         2.5969      2738.7393       0.098404
       1245.50         8.5000        55.3750        25.5857        24.3690       0.095700         5.2122       0.063281         2.5970      2737.9980       0.097406
       1246.00         8.5000        55.7812        24.7049        25.1100       0.092800         5.2235       0.063790         2.5927      2732.7686       0.094772
       1246.50         8.5000        57.7812        24.7323        25.8190       0.088200         4.9104       0.067237         2.5771      2718.5112       0.090888
       1247.00         8.5000        59.0000        24.7393        26.5410       0.081900         4.9836       0.069131         2.5629      2705.3062       0.085596
       1247.50         8.5000        59.7812        24.6937        27.2820       0.076700         4.9071       0.071432         2.5510      2696.0181       0.081228
       1248.00         8.5000        59.7812        24.6938        28.0440       0.072300         5.1398       0.071675         2.5453      2689.9092       0.077532
       1248.50         8.5000        59.7812        24.8376        28.4790       0.068500         4.8815       0.070008         2.5422      2685.1980       0.074340
       1249.00         8.5000        59.1875        24.7211        28.8580       0.065000         4.9284       0.061316         2.5554      2688.8389       0.071400
       1249.50         8.5000        58.0000        23.7416        27.4090       0.062100         4.8974       0.053546         2.5777      2697.0378       0.068964
       1250.00         8.5000        58.0000        22.6068        25.7280       0.059800         5.2654       0.050774         2.6012      2706.5254       0.067032
       1250.50         8.5000        56.1875        21.0224        23.6750       0.059900         5.0737       0.045794         2.6226      2720.4470       0.067116
       1251.00         8.5000        55.7812        19.9603        21.7040       0.062600         5.0076       0.045153         2.6430      2738.2544       0.069384
       1251.50         8.5000        55.1875        20.4492        20.6610       0.066300         5.3680       0.043565         2.6580      2753.3855       0.072492
       1252.00         8.5000        55.3750        21.0380        19.8900       0.070800         5.2849       0.048330         2.6416      2746.6931       0.076272
       1252.50         8.5000        55.7812        22.0404        19.0370       0.071500         5.1705       0.051627         2.6203      2732.6145       0.076860
       1253.00         8.5000        56.1875        22.9015        18.1800       0.068200         4.9898       0.050057         2.6182      2727.2068       0.074088
       1253.50         8.5000        56.7812        23.0439        18.2540       0.061800         5.1999       0.045984         2.6232      2723.0601       0.068712
       1254.00         8.5000        58.7812        23.1330        18.6830       0.052600         5.4128       0.043127         2.6438      2728.3523       0.060984
       1254.50         8.5000        59.3750        22.9565        19.5770       0.041400         5.1228       0.036995         2.6615      2731.6233       0.050989
       1255.00         8.5000        59.7812        22.7102        20.7800       0.037600         5.2976       0.032954         2.6719      2736.8074       0.047588
       1255.50         8.5000        59.0000        22.1037        21.4690       0.037000         5.1763       0.030958         2.6796      2742.0923       0.047051
       1256.00         8.5000        58.3750        21.4992        21.8040       0.046500         5.1719       0.034247         2.6846      2752.9465       0.055610
       1256.50         8.5000        57.3750        20.9079        21.3750       0.060700         5.3613       0.039557         2.6809      2763.4385       0.067788
       1257.00         8.5000        56.7812        20.3472        20.3680       0.072200         5.4658       0.047809         2.6678      2766.6401       0.077448
       1257.50         8.5000        56.7812        20.0127        19.3850       0.082000         5.2103       0.051733         2.6639      2773.1853       0.085680
       1258.00         8.5000        57.1875        19.7948        18.4260       0.091000         5.2349       0.057403         2.6604      2777.5168       0.093240
       1258.50         8.5000        57.7812        20.3345        17.8690       0.100100         5.0114       0.067553         2.6240      2759.7253       0.101401
       1259.00         8.5000        57.7812        20.9740        17.8920       0.106000         5.0394       0.072708         2.5982      2746.8474       0.106758
       1259.50         8.5000        58.1875        21.6089        17.9950       0.109600         4.9817       0.075291         2.5929      2746.2585       0.110027
       1260.00         8.5000        58.0000        22.3846        18.2670       0.108000         5.0522       0.074739         2.5846      2739.2871       0.108574
       1260.50         8.5000        57.7812        24.2195        18.7330       0.102400         4.9674       0.073152         2.5702      2724.8804       0.103489
       1261.00         8.5000        58.1875        26.0077        19.6180       0.096300         4.9851       0.066812         2.5863      2731.1868       0.097950
       1261.50         8.5000        57.5938        26.2964        20.8470       0.089800         4.9646       0.061224         2.6024      2737.4170       0.092232
       1262.00         8.5000        57.3750        26.3780        22.8180       0.085100         5.1753       0.056455         2.6168      2743.7268       0.088284
       1262.50         8.5000        56.5938        26.4909        24.9750       0.081900         5.2721       0.052223         2.6288      2749.1482       0.085596
       1263.00         8.5000        56.0000        26.5090        27.3350       0.079200         5.3337       0.051821         2.6207      2741.5027       0.083328
       1263.50         8.5000        55.5938        25.7883        29.6860       0.076700         5.0714       0.052506         2.6121      2732.5105       0.081228
       1264.00         8.5000        55.5938        25.0603        31.5030       0.073700         5.2624       0.054766         2.5939      2716.4438       0.078708
       1264.50         8.5000        56.0000        25.0116        33.2810       0.070100         5.1391       0.051823         2.6055      2720.3762       0.075684
       1265.00         8.5000        56.3750        25.0127        34.4480       0.067500         5.1169       0.049742         2.6127      2722.5256       0.073500
       1265.50         8.5000        57.0000        24.7092        35.2510       0.066600         5.1604       0.050177         2.6122      2721.1167       0.072744
       1266.00         8.5000        57.5938        24.5158        33.6810       0.065500         4.8689       0.049894         2.6146      2721.6196       0.071820
       1266.50         8.5000        57.7812        25.4921        32.1260       0.063800         5.1706       0.047039         2.6206      2723.9780       0.070392
       1267.00         8.5000        58.3750        26.6404        30.0390       0.062000         5.3228       0.045870         2.6257      2725.1780       0.068880
       1267.50         8.5000        58.7812        27.6065        28.0740       0.060200         5.2417       0.044766         2.6296      2725.9863       0.067368
       1268.00         8.5000        59.1875        28.4440        25.9930       0.058600         5.2092       0.044136         2.6293      2724.0029       0.066024
       1268.50         8.5000        59.1875        28.5785        24.0690       0.057200         5.2066       0.044995         2.6232      2717.9751       0.064848
       1269.00         8.5000        59.5938        28.4231        22.4090       0.055800         5.1003       0.044198         2.6264      2718.8572       0.063672
