~Version Information Block
VERS .                  2.0:  CWLS LOG ASCII STANDARD - VERSION 2.0
WRAP .                   NO:  One line per depth step
~Well Information Block
#MNEM.UNIT        Data Type   Information
#---------- ----------------  -----------
STRT .FT            1000.00:  START DEPTH
STOP .FT            1302.50:  STOP DEPTH
STEP .FT               0.50:  STEP
NULL .              -999.25:  NULL VALUE
COMP .                     :  COMPANY
WELL .                CO3_1:  WELL
FLD  .                     :  FIELD
LOC  .                     :  LOCATION
CTRY .                     :  COUNTRY
STAT .                     :  STATE
CNTY .                     :  COUNTY
SRVC .                     :  SERVICE COMPANY
DATE .                     :  DATE
API  .                     :  API NUMBER
UWI  .                     :  UNIQUE WELL ID
~Curve Information Block
#MNEM.UNIT         API CODE   Curve Description
#---------- ----------------  -----------------
DEPTH.FT                   :  
CALI .IN                   :  GR*0 + 8.5
DT   .US/F                 :  DT+1
GR   .GAPI                 :  Created using text insert
ILD  .OHMM                 :  Created using text insert
NPHI .V/V                  :  Created using text insert
PEF  .B/E                  :  PEF-5
PHIT .V/V                  :  Total Porosity
RHOB .G/C3                 :  Created using text insert
RHOMAA.G/C3                 :  Apparent matrix density
TNPH .V/V                  :  Neutron porosity log
~Parameter Information Block
#MNEM.UNIT            Value   Description
#---------- ----------------  -----------
A    .                    1:  Tortuosity constant
ANAL_DATE.     26-Mar-2021 11:17:11:  Analysis Date
ANAL_USERID.                craig:  Analysis User Identifier
SOCN .IN                0.5:  Standoff for neutron tool
TLI  .FT               1000:  Top log interval (MD)
TLT  .DEGF              165:  Top log interval temperature
~Other Information Block
# 
~A       DEPTH           CALI             DT             GR            ILD           NPHI            PEF           PHIT           RHOB         RHOMAA           TNPH 
# ...
       1098.00         8.5000        62.1875        18.4071        26.4722       0.175325         4.8053       0.135133         2.4572      2721.5676       0.170821
       1098.50         8.5000        64.0000        18.4796        26.4829       0.176050         4.7438       0.138790         2.4525      2719.3186       0.171504
       1099.00         8.5000        65.1875        17.6919        26.0273       0.178125         4.6651       0.144175         2.4418      2714.6760       0.173459
       1099.50         8.5000        66.1875        17.9249        26.2378       0.181500         4.5804       0.147039         2.4428      2719.9421       0.176638
       1100.00         8.5000        66.3750        18.0980        26.1580       0.183450         4.6005       0.146526         2.4480      2726.2810       0.178475
       1100.50         8.5000        66.7812        18.3857        26.3871       0.184875         4.6651       0.145265         2.4550      2732.8066       0.179817
       1101.00         8.5000        67.0000        18.2079        25.2522       0.187450         4.8174       0.145516         2.4538      2735.4011       0.182243
       1101.50         8.5000        66.7812        17.7606        25.1961       0.189350         4.7384       0.147228         2.4537      2738.0479       0.184033
       1102.00         8.5000        66.5938        17.3417        24.5928       0.188650         4.6534       0.147187         2.4565      2738.9966       0.183373
       1102.50         8.5000        66.7812        17.2926        24.2898       0.186050         4.6538       0.146092         2.4573      2735.9102       0.180924
       1103.00         8.5000        66.1875        16.8038        24.0486       0.182800         4.7425       0.143184         2.4588      2732.6741       0.177863
       1103.50         8.5000        66.3750        16.6750        23.8315       0.179775         4.7263       0.139732         2.4707      2736.5374       0.175013
       1104.00         8.5000        66.1875        16.2507        23.8153       0.175325         4.5689       0.138503         2.4752      2733.8250       0.170821
       1104.50         8.5000        65.7812        15.8399        23.4525       0.172325         4.6887       0.134311         2.4848      2736.9019       0.167995
       1105.00         8.5000        65.1875        16.2835        23.5347       0.170875         4.8321       0.130463         2.4912      2739.6953       0.166629
       1105.50         8.5000        64.1875        16.5073        22.9674       0.170375         4.8983       0.127819         2.4951      2741.9824       0.166158
       1106.00         8.5000        63.3750        16.9829        22.1530       0.170850         4.8694       0.127736         2.4905      2739.2117       0.166606
       1106.50         8.5000        62.7812        17.1232        21.7227       0.171500         4.7403       0.129340         2.4841      2735.5864       0.167218
       1107.00         8.5000        62.7812        18.2069        20.8059       0.169575         4.6409       0.127724         2.4901      2737.8577       0.165405
       1107.50         8.5000        62.1875        18.8911        20.2767       0.168825         4.8904       0.123714         2.4937      2739.3884       0.164698
       1108.00         8.5000        61.1875        19.2371        19.7256       0.164975         4.7506       0.119893         2.5048      2742.8284       0.161071
       1108.50         8.5000        61.3750        19.8065        19.0131       0.164825         5.0806       0.117345         2.5058      2743.5244       0.160930
       1109.00         8.5000        60.7812        19.5871        18.8849       0.162325         4.8909       0.116048         2.5099      2743.9609       0.158575
       1109.50         8.5000        60.5938        19.4166        18.4748       0.162450         4.9440       0.113452         2.5204      2751.0627       0.158693
       1110.00         8.5000        60.3750        19.9260        18.6807       0.159650         4.9069       0.111595         2.5240      2751.0635       0.156055
       1110.50         8.5000        60.1875        20.5198        18.9696       0.161875         4.9712       0.110323         2.5274      2755.1697       0.158151
       1111.00         8.5000        60.3750        21.1193        19.2210       0.164650         4.9442       0.113081         2.5147      2749.4668       0.160765
       1111.50         8.5000        61.1875        21.0854        19.8004       0.171725         4.8521       0.118087         2.5082      2751.9656       0.167430
       1112.00         8.5000        62.0000        21.3801        20.2871       0.178975         4.6076       0.126824         2.4959      2752.4460       0.174259
       1112.50         8.5000        62.7812        21.5020        21.0285       0.183775         4.8357       0.128617         2.4945      2757.9949       0.178781
       1113.00         8.5000        63.5938        22.2230        21.5661       0.183550         4.7289       0.129350         2.4957      2758.4556       0.178569
       1113.50         8.5000        63.3750        23.2672        21.8377       0.179675         4.8825       0.124264         2.4971      2754.0698       0.174919
       1114.00         8.5000        63.1875        23.2110        21.6602       0.173125         4.8333       0.121817         2.4969      2745.9446       0.168749
       1114.50         8.5000        63.0000        23.5795        21.0157       0.167850         4.9676       0.118679         2.4991      2742.0461       0.163780
       1115.00         8.5000        62.7812        23.3132        20.4590       0.166000         4.7063       0.120460         2.4980      2739.5322       0.162037
       1115.50         8.5000        62.7812        23.5934        20.3882       0.166200         4.7031       0.120359         2.4980      2739.6943       0.162225
       1116.00         8.5000        63.0000        23.1883        20.0828       0.166200         4.8996       0.118969         2.4996      2740.7998       0.162225
       1116.50         8.5000        63.1875        23.1666        20.1577       0.166325         4.8177       0.120246         2.4972      2739.3230       0.162343
       1117.00         8.5000        63.1875        23.5939        19.8390       0.167400         4.8630       0.119060         2.5014      2743.1814       0.163356
       1117.50         8.5000        62.7812        23.7938        19.6363       0.168750         4.7873       0.119557         2.5018      2744.7859       0.164628
       1118.00         8.5000        63.3750        24.1728        19.9270       0.168275         4.7920       0.117860         2.5113      2750.5908       0.164180
       1118.50         8.5000        64.0000        23.6050        20.0740       0.169000         4.9058       0.118905         2.5084      2749.4492       0.164863
       1119.00         8.5000        64.7812        23.2710        20.6671       0.170900         4.9215       0.121285         2.5037      2748.1968       0.166653
       1119.50         8.5000        64.7812        22.8690        20.5346       0.173975         4.7096       0.126217         2.4952      2745.8098       0.169549
       1120.00         8.5000        65.3750        22.9291        20.3393       0.170500         4.9249       0.125353         2.4877      2737.2991       0.166276
       1120.50         8.5000        65.1875        23.5009        20.1760       0.167500         4.7211       0.127342         2.4774      2727.2463       0.163450
       1121.00         8.5000        63.5938        23.6677        19.9280       0.162300         4.7657       0.122316         2.4859      2727.9885       0.158552
       1121.50         8.5000        61.7812        23.2810        20.2326       0.159625         4.6278       0.118433         2.5011      2735.9045       0.156032
       1122.00         8.5000        59.5938        22.4650        20.3659       0.155325         4.8565       0.111338         2.5143      2741.1516       0.151981
