~Version Information Block
VERS .                  2.0:  CWLS LOG ASCII STANDARD - VERSION 2.0
WRAP .                   NO:  One line per depth step
~Well Information Block
#MNEM.UNIT        Data Type   Information
#---------- ----------------  -----------
STRT .FT            1000.00:  START DEPTH
STOP .FT            1302.50:  STOP DEPTH
STEP .FT               0.50:  STEP
NULL .              -999.25:  NULL VALUE
COMP .                     :  COMPANY
WELL .                CO3_1:  WELL
FLD  .                     :  FIELD
LOC  .                     :  LOCATION
CTRY .                     :  COUNTRY
STAT .                     :  STATE
CNTY .                     :  COUNTY
SRVC .                     :  SERVICE COMPANY
DATE .                     :  DATE
API  .                     :  API NUMBER
UWI  .                     :  UNIQUE WELL ID
~Curve Information Block
#MNEM.UNIT         API CODE   Curve Description
#---------- ----------------  -----------------
DEPTH.FT                   :  
CALI .IN                   :  GR*0 + 8.5
DT   .US/F                 :  DT+1
GR   .GAPI                 :  Created using text insert
ILD  .OHMM                 :  Created using text insert
NPHI .V/V                  :  Created using text insert
PEF  .B/E                  :  PEF-5
PHIT .V/V                  :  Total Porosity
RHOB .G/C3                 :  Created using text insert
RHOMAA.G/C3                 :  Apparent matrix density
TNPH .V/V                  :  Neutron porosity log
~Parameter Information Block
#MNEM.UNIT            Value   Description
#---------- ----------------  -----------
A    .                    1:  Tortuosity constant
ANAL_DATE.     26-Mar-2021 11:17:11:  Analysis Date
ANAL_USERID.                craig:  Analysis User Identifier
SOCN .IN                0.5:  Standoff for neutron tool
TLI  .FT               1000:  Top log interval (MD)
TLT  .DEGF              165:  Top log interval temperature
~Other Information Block
# 
~A       DEPTH           CALI             DT             GR            ILD           NPHI            PEF           PHIT           RHOB         RHOMAA           TNPH 
# ...
       1049.00         8.5000        75.1875        17.7781        40.2069       0.254600         4.3838       0.213456         2.3291      2738.7161       0.250447
       1049.50         8.5000        75.0000        17.2398        43.7169       0.257450         4.5262       0.213624         2.3249      2740.1172       0.253497
       1050.00         8.5000        76.0000        16.8642        45.1212       0.256775         4.2933       0.215596         2.3343      2745.9744       0.252774
       1050.50         8.5000        76.0000        17.0567        45.8923       0.249650         4.5034       0.206632         2.3490      2745.1084       0.245151
       1051.00         8.5000        77.0000        17.5489        48.3279       0.250475         4.2865       0.208914         2.3589      2754.2900       0.246033
       1051.50         8.5000        77.3750        18.0792        46.8146       0.248575         4.5996       0.201885         2.3665      2756.7424       0.244000
       1052.00         8.5000        78.1875        18.7402        47.6511       0.245375         4.6577       0.199612         2.3681      2753.4167       0.240576
       1052.50         8.5000        78.5625        18.7296        44.5629       0.240050         4.5156       0.199686         2.3717      2746.6060       0.235026
       1053.00         8.5000        77.1875        18.3777        41.7572       0.241225         4.5490       0.196105         2.3783      2753.1912       0.236212
       1053.50         8.5000        76.3750        17.9649        41.2470       0.242650         4.3967       0.197491         2.3832      2758.9897       0.237660
       1054.00         8.5000        75.1875        17.2353        39.0478       0.242600         4.6861       0.195717         2.3747      2753.0232       0.237607
       1054.50         8.5000        74.7500        17.4698        39.4759       0.239550         4.4028       0.198169         2.3677      2742.9556       0.234520
       1055.00         8.5000        73.7500        17.5816        38.0507       0.238075         4.5311       0.195973         2.3615      2736.4402       0.233031
       1055.50         8.5000        73.3750        17.7050        39.0537       0.238775         4.4459       0.199057         2.3525      2730.8389       0.233738
       1056.00         8.5000        74.1875        17.6034        38.9052       0.238775         4.4181       0.201816         2.3477      2727.4548       0.233738
       1056.50         8.5000        74.3750        17.2298        38.1498       0.238625         4.5104       0.200505         2.3501      2728.9492       0.233586
       1057.00         8.5000        76.0000        17.1660        39.3264       0.237725         4.6928       0.199630         2.3520      2729.1963       0.232677
       1057.50         8.5000        78.0000        16.5721        38.2012       0.239125         4.5248       0.202214         2.3602      2736.9353       0.234091
       1058.00         8.5000        78.0000        16.7758        38.5948       0.241500         4.4418       0.204630         2.3578      2739.3931       0.236490
       1058.50         8.5000        77.5625        17.2767        37.5740       0.239800         4.5135       0.200475         2.3648      2741.4053       0.234773
       1059.00         8.5000        77.5625        17.9142        35.1560       0.237500         4.4646       0.197948         2.3728      2743.4998       0.232450
       1059.50         8.5000        76.3750        17.8233        35.7165       0.228475         4.4871       0.187911         2.3923      2743.0322       0.223335
       1060.00         8.5000        76.7500        17.9621        34.1472       0.220325         4.6017       0.184405         2.4007      2738.3711       0.215103
       1060.50         8.5000        76.0000        17.9267        35.1395       0.209375         4.5530       0.178716         2.4123      2734.6665       0.204044
       1061.00         8.5000        74.0000        18.5137        34.7494       0.199775         4.7937       0.165401         2.4360      2739.9734       0.194348
       1061.50         8.5000        71.7500        19.0746        36.5642       0.191725         4.7091       0.151978         2.4615      2746.9446       0.186270
       1062.00         8.5000        69.0000        19.2067        39.1285       0.186800         4.7359       0.142234         2.4797      2751.4851       0.181631
       1062.50         8.5000        67.7500        18.9866        38.5328       0.185550         4.6230       0.140754         2.4846      2753.0349       0.180453
       1063.00         8.5000        66.0000        18.6273        41.8162       0.185575         4.8672       0.137567         2.4831      2752.0337       0.180477
       1063.50         8.5000        64.7812        18.1467        41.4140       0.189400         4.7899       0.144033         2.4596      2741.6829       0.184080
       1064.00         8.5000        62.0000        17.3832        44.0080       0.188000         4.6390       0.146326         2.4448      2729.7278       0.182761
       1064.50         8.5000        63.5938        17.0505        47.2903       0.191175         4.6548       0.152571         2.4341      2727.6658       0.185752
       1065.00         8.5000        67.0000        17.2563        48.9036       0.196975         4.4041       0.164717         2.4226      2727.2334       0.191520
       1065.50         8.5000        71.0000        17.4626        52.8560       0.204375         4.5780       0.167256         2.4227      2736.8254       0.198994
       1066.00         8.5000        73.1875        17.9182        50.8430       0.212475         4.5733       0.172199         2.4178      2741.5376       0.207175
       1066.50         8.5000        75.3750        17.8874        54.8439       0.217450         4.7714       0.173946         2.4269      2753.0483       0.212199
       1067.00         8.5000        74.7500        17.9753        53.6858       0.218525         4.5862       0.175458         2.4239      2752.2498       0.213285
       1067.50         8.5000        73.5625        17.9580        53.8760       0.220425         4.4654       0.174184         2.4272      2756.6787       0.215204
       1068.00         8.5000        73.5625        18.0228        57.0988       0.220775         4.3284       0.177654         2.4215      2753.2690       0.215558
       1068.50         8.5000        73.7500        18.1670        55.8351       0.219300         4.6450       0.172108         2.4313      2758.1794       0.214068
       1069.00         8.5000        73.5625        17.4108        60.8829       0.218875         4.4324       0.175504         2.4240      2752.6946       0.213639
       1069.50         8.5000        73.5625        17.3928        57.1508       0.220775         4.6073       0.174776         2.4207      2752.7786       0.215558
       1070.00         8.5000        73.0000        17.2823        60.5115       0.223075         4.4328       0.178340         2.4153      2751.9048       0.217881
       1070.50         8.5000        71.7500        17.3923        59.3238       0.223975         4.6426       0.175887         2.4090      2748.8081       0.218790
       1071.00         8.5000        71.1875        17.5526        61.1022       0.226600         4.6443       0.178712         2.3955      2742.9092       0.221441
       1071.50         8.5000        70.5625        17.2686        81.6809       0.228675         4.6827       0.180189         2.3883      2740.6323       0.223537
       1072.00         8.5000        70.0000        16.9492        63.1657       0.230925         4.5631       0.182923         2.3856      2742.1287       0.225809
       1072.50         8.5000        68.7500        17.1747        88.3421       0.232575         4.5828       0.181917         2.3864      2745.2842       0.227476
       1073.00         8.5000        67.3750        17.5279        87.2503       0.230675         4.4065       0.182969         2.3814      2738.8647       0.225557
