~Version Information Block
VERS .                  2.0:  CWLS LOG ASCII STANDARD - VERSION 2.0
WRAP .                   NO:  One line per depth step
~Well Information Block
#MNEM.UNIT        Data Type   Information
#---------- ----------------  -----------
STRT .FT            1000.00:  START DEPTH
STOP .FT            1302.50:  STOP DEPTH
STEP .FT               0.50:  STEP
NULL .              -999.25:  NULL VALUE
COMP .                     :  COMPANY
WELL .                CO3_1:  WELL
FLD  .                     :  FIELD
LOC  .                     :  LOCATION
CTRY .                     :  COUNTRY
STAT .                     :  STATE
CNTY .                     :  COUNTY
SRVC .                     :  SERVICE COMPANY
DATE .                     :  DATE
API  .                     :  API NUMBER
UWI  .                     :  UNIQUE WELL ID
~Curve Information Block
#MNEM.UNIT         API CODE   Curve Description
#---------- ----------------  -----------------
DEPTH.FT                   :  
CALI .IN                   :  GR*0 + 8.5
DT   .US/F                 :  DT+1
GR   .GAPI                 :  Created using text insert
ILD  .OHMM                 :  Created using text insert
NPHI .V/V                  :  Created using text insert
PEF  .B/E                  :  PEF-5
PHIT .V/V                  :  Total Porosity
RHOB .G/C3                 :  Created using text insert
RHOMAA.G/C3                 :  Apparent matrix density
TNPH .V/V                  :  Neutron porosity log
~Parameter Information Block
#MNEM.UNIT            Value   Description
#---------- ----------------  -----------
A    .                    1:  Tortuosity constant
ANAL_DATE.     26-Mar-2021 11:17:11:  Analysis Date
ANAL_USERID.                craig:  Analysis User Identifier
SOCN .IN                0.5:  Standoff for neutron tool
TLI  .FT               1000:  Top log interval (MD)
TLT  .DEGF              165:  Top log interval temperature
~Other Information Block
# 
~A       DEPTH           CALI             DT             GR            ILD           NPHI            PEF           PHIT           RHOB         RHOMAA           TNPH 
# ...
       1024.50         8.5000        72.1875        20.6130        45.7538       0.246675         4.6223       0.198853         2.3483      2740.9312       0.241967
       1025.00         8.5000        74.5625        20.3676        44.4682       0.256275         4.2392       0.212210         2.3368      2746.7417       0.252239
       1025.50         8.5000        74.7500        20.5185        42.3451       0.260050         4.2867       0.213369         2.3327      2748.6648       0.256278
       1026.00         8.5000        75.5625        20.4811        43.2521       0.260750         4.2188       0.217338         2.3271      2745.5151       0.257028
       1026.50         8.5000        76.0000        20.3044        41.3324       0.258600         4.6027       0.212130         2.3258      2741.8870       0.254727
       1027.00         8.5000        76.5625        20.6858        42.4086       0.252225         4.4537       0.209625         2.3359      2740.3540       0.247906
       1027.50         8.5000        75.7500        20.1725        42.5169       0.245275         4.3794       0.204632         2.3479      2738.6572       0.240469
       1028.00         8.5000        75.1875        19.3217        44.8798       0.238750         4.5470       0.195893         2.3632      2737.9753       0.233712
       1028.50         8.5000        75.1875        18.0040        46.1393       0.237400         4.4599       0.196050         2.3692      2740.3521       0.232349
       1029.00         8.5000        74.0000        17.1746        45.1845       0.236125         4.5227       0.191628         2.3794      2745.8887       0.231061
       1029.50         8.5000        72.7500        17.2721        49.9863       0.235350         4.6099       0.191112         2.3719      2738.8972       0.230278
       1030.00         8.5000        70.1875        17.2083        47.7116       0.232050         4.5201       0.188821         2.3748      2735.8008       0.226946
       1030.50         8.5000        67.5625        17.0531        48.3307       0.231000         4.5953       0.184673         2.3728      2732.7542       0.225885
       1031.00         8.5000        66.1875        17.5989        48.6330       0.229650         4.4127       0.181608         2.3762      2733.0862       0.224522
       1031.50         8.5000        66.7812        18.3509        47.9326       0.222525         4.5059       0.179561         2.3758      2723.4253       0.217325
       1032.00         8.5000        69.1875        18.5951        49.3710       0.220025         4.3973       0.185370         2.3726      2718.0962       0.214800
       1032.50         8.5000        71.7500        18.7235        47.8171       0.221950         4.4829       0.186704         2.3733      2720.9819       0.216744
       1033.00         8.5000        74.5625        19.0411        49.4447       0.226450         4.2971       0.192187         2.3735      2726.9614       0.221290
       1033.50         8.5000        75.1875        18.8024        49.1105       0.231650         4.5689       0.192276         2.3682      2730.6191       0.226541
       1034.00         8.5000        75.5625        18.7085        48.1287       0.234925         4.4112       0.198664         2.3583      2728.7390       0.229849
       1034.50         8.5000        74.0000        18.5346        47.1085       0.238800         4.3744       0.200186         2.3553      2732.5627       0.233763
       1035.00         8.5000        75.3750        18.9866        43.3158       0.240900         4.5050       0.202183         2.3472      2730.5388       0.235884
       1035.50         8.5000        76.1875        19.2013        42.4398       0.244125         4.5102       0.206348         2.3380      2729.3547       0.239239
       1036.00         8.5000        76.1875        19.2584        40.9056       0.243725         4.3709       0.207666         2.3398      2729.9607       0.238811
       1036.50         8.5000        75.7500        19.1428        40.6081       0.238500         4.3657       0.201813         2.3512      2729.5691       0.233460
       1037.00         8.5000        74.5625        18.3140        40.5649       0.224000         4.7020       0.186797         2.3703      2721.5505       0.218815
       1037.50         8.5000        71.1875        17.7891        39.5358       0.215300         4.7091       0.174241         2.4018      2732.9553       0.210028
       1038.00         8.5000        68.7500        17.2671        41.4466       0.211400         4.4116       0.170369         2.4163      2739.1199       0.206089
       1038.50         8.5000        68.3750        16.7932        40.8571       0.209775         4.7274       0.166451         2.4161      2737.4141       0.204448
       1039.00         8.5000        70.1875        16.7388        43.6720       0.215450         4.3858       0.176296         2.4072      2737.1169       0.210180
       1039.50         8.5000        72.7500        17.1607        44.9121       0.223300         4.6478       0.180108         2.3975      2739.3203       0.218108
       1040.00         8.5000        75.1875        18.2691        44.4622       0.229375         4.4990       0.187677         2.3884      2741.2998       0.224244
       1040.50         8.5000        76.0000        18.8756        43.8872       0.233425         4.4769       0.194628         2.3693      2734.2529       0.228334
       1041.00         8.5000        75.7500        18.9656        39.2904       0.231775         4.3906       0.195465         2.3670      2730.0569       0.226668
       1041.50         8.5000        75.7500        18.3024        38.5666       0.232975         4.3447       0.195172         2.3743      2737.0547       0.227880
       1042.00         8.5000        75.1875        18.2880        37.0076       0.233650         4.5846       0.191502         2.3760      2739.2317       0.228562
       1042.50         8.5000        75.3750        18.1924        34.2589       0.238175         4.3904       0.198685         2.3628      2737.3198       0.233132
       1043.00         8.5000        76.5625        17.8044        32.9983       0.248775         4.2620       0.210732         2.3431      2739.4019       0.244214
       1043.50         8.5000        76.5625        17.6844        32.8834       0.254925         4.4199       0.212890         2.3353      2743.5181       0.250795
       1044.00         8.5000        75.3750        18.1152        31.5809       0.258650         4.4591       0.211912         2.3369      2750.1650       0.254781
       1044.50         8.5000        73.3750        18.6403        32.1138       0.253400         4.5193       0.205191         2.3468      2749.6609       0.249163
       1045.00         8.5000        70.5625        18.6492        31.0416       0.245600         4.4770       0.200255         2.3505      2741.3181       0.240817
       1045.50         8.5000        68.5625        18.7146        31.2980       0.242425         4.3649       0.194338         2.3570      2740.1812       0.237424
       1046.00         8.5000        68.3750        18.9645        32.4375       0.240600         4.6412       0.189783         2.3533      2734.5503       0.235581
       1046.50         8.5000        69.5625        19.5430        32.5576       0.242425         4.4326       0.194397         2.3574      2740.4775       0.237424
       1047.00         8.5000        70.7500        18.9065        35.1216       0.241950         4.3829       0.198739         2.3523      2736.1406       0.236945
       1047.50         8.5000        73.1875        18.0758        37.7726       0.246700         4.4291       0.206004         2.3386      2734.4216       0.241994
       1048.00         8.5000        74.1875        17.6226        37.8274       0.250225         4.2705       0.214183         2.3242      2728.3074       0.245766
       1048.50         8.5000        75.1875        17.6900        40.2339       0.253950         4.3011       0.215043         2.3279      2736.9385       0.249751
