~Version Information Block
VERS .                  2.0:  CWLS LOG ASCII STANDARD - VERSION 2.0
WRAP .                   NO:  One line per depth step
~Well Information Block
#MNEM.UNIT        Data Type   Information
#---------- ----------------  -----------
STRT .FT            1000.00:  START DEPTH
STOP .FT            1302.50:  STOP DEPTH
STEP .FT               0.50:  STEP
NULL .              -999.25:  NULL VALUE
COMP .                     :  COMPANY
WELL .                CO3_1:  WELL
FLD  .                     :  FIELD
LOC  .                     :  LOCATION
CTRY .                     :  COUNTRY
STAT .                     :  STATE
CNTY .                     :  COUNTY
SRVC .                     :  SERVICE COMPANY
DATE .                     :  DATE
API  .                     :  API NUMBER
UWI  .                     :  UNIQUE WELL ID
~Curve Information Block
#MNEM.UNIT         API CODE   Curve Description
#---------- ----------------  -----------------
DEPTH.FT                   :  
CALI .IN                   :  GR*0 + 8.5
DT   .US/F                 :  DT+1
GR   .GAPI                 :  Created using text insert
ILD  .OHMM                 :  Created using text insert
NPHI .V/V                  :  Created using text insert
PEF  .B/E                  :  PEF-5
PHIT .V/V                  :  Total Porosity
RHOB .G/C3                 :  Created using text insert
RHOMAA.G/C3                 :  Apparent matrix density
TNPH .V/V                  :  Neutron porosity log
~Parameter Information Block
#MNEM.UNIT            Value   Description
#---------- ----------------  -----------
A    .                    1:  Tortuosity constant
ANAL_DATE.     26-Mar-2021 11:17:11:  Analysis Date
ANAL_USERID.                craig:  Analysis User Identifier
SOCN .IN                0.5:  Standoff for neutron tool
TLI  .FT               1000:  Top log interval (MD)
TLT  .DEGF              165:  Top log interval temperature
~Other Information Block
# 
~A       DEPTH           CALI             DT             GR            ILD           NPHI            PEF           PHIT           RHOB         RHOMAA           TNPH 
# ...
       1147.00         8.5000        62.5938        16.5047        22.9608       0.148325         4.8646       0.107312         2.5664      2769.1350       0.145387
       1147.50         8.5000        60.5938        15.6951        21.5801       0.148350         5.0686       0.107333         2.5526      2760.1731       0.145411
       1148.00         8.5000        60.1875        14.9879        20.0503       0.150025         4.9233       0.110552         2.5352      2750.7126       0.146989
       1148.50         8.5000        59.7812        14.9903        19.1063       0.142775         4.8260       0.108736         2.5299      2741.0581       0.140159
       1149.00         8.5000        60.0000        15.2785        18.0616       0.135900         4.9342       0.104066         2.5410      2741.2622       0.133907
       1149.50         8.5000        60.3750        15.4973        17.4863       0.133650         5.0870       0.100454         2.5558      2748.0291       0.131864
       1150.00         8.5000        60.5938        15.7950        17.1712       0.135500         4.8321       0.102226         2.5578      2751.9346       0.133544
       1150.50         8.5000        61.0000        16.2435        16.8327       0.134000         4.9115       0.101310         2.5547      2747.7578       0.132182
       1151.00         8.5000        60.0000        17.4108        16.6519       0.130400         5.0672       0.094689         2.5652      2750.0820       0.128913
       1151.50         8.5000        59.1875        17.8251        16.0386       0.125650         4.9607       0.091678         2.5650      2743.9641       0.124600
       1152.00         8.5000        58.0000        18.2624        15.7240       0.122600         5.1436       0.088170         2.5639      2739.4021       0.121831
       1152.50         8.5000        57.7812        18.0857        14.9343       0.120875         4.9235       0.089359         2.5563      2732.2791       0.120265
       1153.00         8.5000        57.0000        17.9240        14.5781       0.121250         5.0269       0.088171         2.5590      2734.5889       0.120605
       1153.50         8.5000        57.7812        17.4196        14.3289       0.121550         5.0946       0.090421         2.5510      2729.5200       0.120877
       1154.00         8.5000        58.3750        18.2298        13.8382       0.124050         4.8902       0.093446         2.5470      2729.9673       0.123147
       1154.50         8.5000        60.0000        19.1118        13.3167       0.128025         5.0003       0.096804         2.5408      2730.6184       0.126757
       1155.00         8.5000        61.1875        20.0013        12.7854       0.131575         4.8532       0.099532         2.5426      2736.5894       0.129980
       1155.50         8.5000        61.7812        19.3585        12.9217       0.133025         5.0468       0.099269         2.5485      2742.2900       0.131297
       1156.00         8.5000        63.0000        18.7020        13.2158       0.132325         5.0033       0.100193         2.5502      2742.5554       0.130661
       1156.50         8.5000        63.3750        18.0744        13.9717       0.130475         4.8964       0.100533         2.5505      2740.3752       0.128981
       1157.00         8.5000        63.3750        16.9870        14.6907       0.130050         4.9632       0.099456         2.5609      2746.7761       0.128595
       1157.50         8.5000        62.7812        17.1565        15.5926       0.127975         4.8559       0.096775         2.5757      2753.9143       0.126711
       1158.00         8.5000        62.7812        17.6589        16.8280       0.128800         5.1119       0.094195         2.5822      2759.2925       0.127460
       1158.50         8.5000        62.5938        18.3696        17.8628       0.129225         5.0954       0.091717         2.5913      2765.7686       0.127846
       1159.00         8.5000        63.0000        18.8030        19.0486       0.133425         5.1553       0.093756         2.5882      2769.0393       0.131660
       1159.50         8.5000        63.0000        18.4329        20.2819       0.136100         4.9358       0.096207         2.5933      2775.8801       0.134089
       1160.00         8.5000        63.1875        17.9829        21.4536       0.138575         5.0212       0.099474         2.5827      2771.5913       0.136336
       1160.50         8.5000        63.5938        17.4632        22.3059       0.139750         5.0963       0.104078         2.5643      2760.8516       0.137403
       1161.00         8.5000        64.0000        16.8172        22.6297       0.142925         4.9895       0.109814         2.5416      2749.0264       0.140300
       1161.50         8.5000        64.1875        16.8370        23.5922       0.145500         5.0152       0.111271         2.5352      2746.6880       0.142726
       1162.00         8.5000        64.0000        16.8470        23.3064       0.142200         5.1099       0.111011         2.5275      2738.9397       0.139628
       1162.50         8.5000        62.5938        16.8066        23.0649       0.139450         4.9519       0.109669         2.5278      2736.4131       0.137131
       1163.00         8.5000        61.1875        16.7765        22.5686       0.138725         4.9553       0.107497         2.5317      2738.1777       0.136472
       1163.50         8.5000        60.0000        17.1173        22.0493       0.140700         4.8117       0.107220         2.5322      2740.5972       0.138266
       1164.00         8.5000        59.5938        16.7103        21.9855       0.144100         4.8799       0.111119         2.5106      2728.6091       0.141407
       1164.50         8.5000        60.1875        16.8999        21.4366       0.145600         4.9029       0.113187         2.5076      2728.3594       0.142820
       1165.00         8.5000        61.0000        16.8231        21.2985       0.149300         4.7878       0.116088         2.5082      2732.3115       0.146306
       1165.50         8.5000        62.3750        17.0446        20.7766       0.154900         4.9709       0.115713         2.5197      2744.8120       0.151581
       1166.00         8.5000        64.1875        17.0538        20.7877       0.160675         4.9947       0.121662         2.5037      2738.9680       0.157021
       1166.50         8.5000        64.5938        16.9320        21.0448       0.165175         4.9274       0.124242         2.5029      2742.1643       0.161260
       1167.00         8.5000        65.0000        16.9969        21.1850       0.164575         4.8421       0.128432         2.4875      2731.8728       0.160695
       1167.50         8.5000        63.5938        16.4158        21.6187       0.162525         4.8188       0.128605         2.4812      2725.4963       0.158764
       1168.00         8.5000        61.7812        15.9688        21.3399       0.159000         4.8692       0.125300         2.4834      2724.0281       0.155443
       1168.50         8.5000        60.1875        15.6341        19.9383       0.156325         4.8885       0.118492         2.5027      2734.8940       0.152923
       1169.00         8.5000        60.5938        15.4624        19.8684       0.159075         4.7959       0.118596         2.5110      2742.6077       0.155514
       1169.50         8.5000        60.5938        15.4785        19.5613       0.162625         4.7407       0.119874         2.5135      2747.2053       0.158858
       1170.00         8.5000        61.0000        15.9421        20.1212       0.162700         5.0030       0.118777         2.5101      2745.0684       0.158928
       1170.50         8.5000        61.5938        16.8266        19.9517       0.157800         4.9850       0.115626         2.5178      2746.1038       0.154313
       1171.00         8.5000        61.1875        17.7571        19.7434       0.151725         4.7102       0.115493         2.5156      2739.4460       0.148590
