~Version Information Block
VERS .                  2.0:  CWLS LOG ASCII STANDARD - VERSION 2.0
WRAP .                   NO:  One line per depth step
~Well Information Block
#MNEM.UNIT        Data Type   Information
#---------- ----------------  -----------
STRT .FT            1000.00:  START DEPTH
STOP .FT            1302.50:  STOP DEPTH
STEP .FT               0.50:  STEP
NULL .              -999.25:  NULL VALUE
COMP .                     :  COMPANY
WELL .                CO3_1:  WELL
FLD  .                     :  FIELD
LOC  .                     :  LOCATION
CTRY .                     :  COUNTRY
STAT .                     :  STATE
CNTY .                     :  COUNTY
SRVC .                     :  SERVICE COMPANY
DATE .                     :  DATE
API  .                     :  API NUMBER
UWI  .                     :  UNIQUE WELL ID
~Curve Information Block
#MNEM.UNIT         API CODE   Curve Description
#---------- ----------------  -----------------
DEPTH.FT                   :  
CALI .IN                   :  GR*0 + 8.5
DT   .US/F                 :  DT+1
GR   .GAPI                 :  Created using text insert
ILD  .OHMM                 :  Created using text insert
NPHI .V/V                  :  Created using text insert
PEF  .B/E                  :  PEF-5
PHIT .V/V                  :  Total Porosity
RHOB .G/C3                 :  Created using text insert
RHOMAA.G/C3                 :  Apparent matrix density
TNPH .V/V                  :  Neutron porosity log
~Parameter Information Block
#MNEM.UNIT            Value   Description
#---------- ----------------  -----------
A    .                    1:  Tortuosity constant
ANAL_DATE.     26-Mar-2021 11:17:11:  Analysis Date
ANAL_USERID.                craig:  Analysis User Identifier
SOCN .IN                0.5:  Standoff for neutron tool
TLI  .FT               1000:  Top log interval (MD)
TLT  .DEGF              165:  Top log interval temperature
~Other Information Block
# 
~A       DEPTH           CALI             DT             GR            ILD           NPHI            PEF           PHIT           RHOB         RHOMAA           TNPH 
# ...
       1122.50         8.5000        58.3750        21.7827        20.4072       0.153950         4.9917       0.106732         2.5236      2746.0027       0.150686
       1123.00         8.5000        57.7812        21.3519        20.3013       0.154650         4.7974       0.108324         2.5189      2743.6851       0.151345
       1123.50         8.5000        58.0000        20.8397        19.8925       0.154200         4.8132       0.109828         2.5131      2739.4448       0.150921
       1124.00         8.5000        58.3750        20.6388        19.9689       0.153975         4.9878       0.108736         2.5156      2740.7329       0.150709
       1124.50         8.5000        59.0000        20.3307        19.7669       0.153050         4.9472       0.109827         2.5152      2739.8047       0.149838
       1125.00         8.5000        59.5938        19.8515        19.7163       0.152750         4.8485       0.112159         2.5134      2738.3608       0.149556
       1125.50         8.5000        61.0000        19.8333        19.9192       0.152775         4.8340       0.114053         2.5142      2738.8845       0.149579
       1126.00         8.5000        62.7812        19.4652        19.5843       0.153525         4.8021       0.115200         2.5188      2742.5598       0.150286
       1126.50         8.5000        63.7812        18.7619        19.9608       0.155475         4.9288       0.115654         2.5222      2746.8396       0.152122
       1127.00         8.5000        64.0000        17.9108        20.1116       0.152875         4.7896       0.115016         2.5317      2750.6194       0.149673
       1127.50         8.5000        61.1875        16.7166        20.0955       0.146175         4.9334       0.106302         2.5524      2758.4373       0.143362
       1128.00         8.5000        60.5938        16.0909        20.1239       0.138800         4.7490       0.102211         2.5662      2760.8088       0.136540
       1128.50         8.5000        60.1875        15.6639        19.8083       0.138875         4.8671       0.102580         2.5591      2756.2485       0.136608
       1129.00         8.5000        61.1875        16.0480        19.7967       0.146750         4.9016       0.107397         2.5454      2754.3911       0.143904
       1129.50         8.5000        63.5938        16.6261        19.2276       0.157425         4.8724       0.116680         2.5250      2750.1829       0.153959
       1130.00         8.5000        63.7812        16.8111        18.8434       0.164500         4.8188       0.122255         2.5116      2747.6035       0.160624
       1130.50         8.5000        64.0000        16.6008        17.9239       0.165825         4.7885       0.122618         2.5161      2751.5635       0.161872
       1131.00         8.5000        63.0000        16.4827        17.7414       0.163700         4.8350       0.120176         2.5185      2751.1099       0.159870
       1131.50         8.5000        62.1875        16.5090        17.4451       0.159125         4.8258       0.120641         2.5041      2737.6433       0.155561
       1132.00         8.5000        61.3750        17.2094        17.5146       0.155675         4.8576       0.118153         2.5048      2735.3989       0.152311
       1132.50         8.5000        60.7812        17.3273        18.0914       0.153725         4.7985       0.117300         2.5052      2733.6377       0.150474
       1133.00         8.5000        62.0000        17.3862        18.6212       0.155475         4.7970       0.121440         2.4995      2731.7463       0.152122
       1133.50         8.5000        65.5938        16.5160        19.5896       0.159450         4.7674       0.129506         2.4835      2724.0845       0.155867
       1134.00         8.5000        67.5625        15.7981        19.7681       0.163450         4.5394       0.136390         2.4750      2721.8030       0.159635
       1134.50         8.5000        70.0000        15.0368        19.8178       0.165050         4.6433       0.143005         2.4728      2721.5737       0.161142
       1135.00         8.5000        72.3750        15.1214        19.8779       0.163800         4.7623       0.142619         2.4830      2727.5596       0.159965
       1135.50         8.5000        72.3750        15.6254        19.4538       0.164100         4.8276       0.139824         2.4943      2735.4241       0.160247
       1136.00         8.5000        73.1875        15.9674        19.6706       0.164450         4.9446       0.139459         2.4959      2737.1794       0.160577
       1136.50         8.5000        74.1875        15.9118        19.5325       0.166425         4.7743       0.144838         2.4820      2729.4517       0.162437
       1137.00         8.5000        75.5625        16.1693        19.4058       0.165125         4.7455       0.146794         2.4754      2723.3647       0.161213
       1137.50         8.5000        75.7500        15.9908        19.6128       0.163325         4.7311       0.146569         2.4783      2723.9851       0.159517
       1138.00         8.5000        75.7500        15.8669        19.2204       0.163575         4.7648       0.144650         2.4893      2731.6448       0.159753
       1138.50         8.5000        76.1875        15.5564        19.4893       0.164500         4.8653       0.143308         2.4962      2737.4683       0.160624
       1139.00         8.5000        77.0000        15.9492        19.2611       0.166775         4.7093       0.145405         2.4970      2739.8220       0.162767
       1139.50         8.5000        76.7500        16.4382        18.7005       0.163025         4.7292       0.143333         2.4968      2736.1702       0.159235
       1140.00         8.5000        76.0000        16.8479        18.5092       0.158025         4.9104       0.138501         2.5002      2734.2981       0.154525
       1140.50         8.5000        75.0000        16.9385        17.7781       0.151325         4.8262       0.134005         2.5087      2734.2410       0.148213
       1141.00         8.5000        73.5625        16.7013        18.0185       0.147025         4.9851       0.127487         2.5184      2736.4473       0.144163
       1141.50         8.5000        71.3750        16.4596        18.3415       0.147775         4.8617       0.125779         2.5280      2743.4102       0.144869
       1142.00         8.5000        71.1875        16.1973        18.6944       0.151300         5.1320       0.125704         2.5336      2750.7712       0.148190
       1142.50         8.5000        71.1875        15.5168        19.7869       0.155500         4.9138       0.129250         2.5278      2750.6731       0.152146
       1143.00         8.5000        71.1875        15.5082        20.1806       0.157300         4.8970       0.129326         2.5305      2753.8396       0.153842
       1143.50         8.5000        71.0000        15.6373        21.3325       0.160850         5.0502       0.127685         2.5376      2761.2612       0.157186
       1144.00         8.5000        70.0000        15.8479        21.7679       0.161525         4.9681       0.126517         2.5378      2762.0427       0.157822
       1144.50         8.5000        69.1875        16.0407        22.4614       0.160450         4.9750       0.125805         2.5345      2758.9387       0.156809
       1145.00         8.5000        69.1875        16.2387        23.3193       0.157700         4.8669       0.124847         2.5365      2758.1606       0.154218
       1145.50         8.5000        67.1875        16.0920        23.7472       0.156725         4.8866       0.122174         2.5372      2757.8218       0.153300
       1146.00         8.5000        66.5938        16.6194        24.5162       0.155175         4.8337       0.120316         2.5424      2759.7922       0.151840
       1146.50         8.5000        65.7812        16.7564        24.1480       0.149875         4.9959       0.114044         2.5581      2765.6086       0.146847
