~Version Information Block
VERS .                  2.0:  CWLS LOG ASCII STANDARD - VERSION 2.0
WRAP .                   NO:  One line per depth step
~Well Information Block
#MNEM.UNIT        Data Type   Information
#---------- ----------------  -----------
STRT .FT            1000.00:  START DEPTH
STOP .FT            1302.50:  STOP DEPTH
STEP .FT               0.50:  STEP
NULL .              -999.25:  NULL VALUE
COMP .                     :  COMPANY
WELL .                CO3_1:  WELL
FLD  .                     :  FIELD
LOC  .                     :  LOCATION
CTRY .                     :  COUNTRY
STAT .                     :  STATE
CNTY .                     :  COUNTY
SRVC .                     :  SERVICE COMPANY
DATE .                     :  DATE
API  .                     :  API NUMBER
UWI  .                     :  UNIQUE WELL ID
~Curve Information Block
#MNEM.UNIT         API CODE   Curve Description
#---------- ----------------  -----------------
DEPTH.FT                   :  
CALI .IN                   :  GR*0 + 8.5
DT   .US/F                 :  DT+1
GR   .GAPI                 :  Created using text insert
ILD  .OHMM                 :  Created using text insert
NPHI .V/V                  :  Created using text insert
PEF  .B/E                  :  PEF-5
PHIT .V/V                  :  Total Porosity
RHOB .G/C3                 :  Created using text insert
RHOMAA.G/C3                 :  Apparent matrix density
TNPH .V/V                  :  Neutron porosity log
~Parameter Information Block
#MNEM.UNIT            Value   Description
#---------- ----------------  -----------
A    .                    1:  Tortuosity constant
ANAL_DATE.     26-Mar-2021 11:17:11:  Analysis Date
ANAL_USERID.                craig:  Analysis User Identifier
SOCN .IN                0.5:  Standoff for neutron tool
TLI  .FT               1000:  Top log interval (MD)
TLT  .DEGF              165:  Top log interval temperature
~Other Information Block
# 
~A       DEPTH           CALI             DT             GR            ILD           NPHI            PEF           PHIT           RHOB         RHOMAA           TNPH 
# ...
       1269.50         8.5000        59.3750        27.2176        20.8730       0.054400         5.1937       0.041308         2.6406      2727.8584       0.062496
       1270.00         8.5000        59.0000        25.8984        19.9160       0.053100         5.2717       0.040528         2.6456      2730.2725       0.061404
       1270.50         8.5000        58.3750        25.3258        19.0010       0.052400         5.2069       0.038851         2.6514      2733.8748       0.060816
       1271.00         8.5000        57.5938        25.0119        18.0640       0.051800         5.0930       0.036246         2.6607      2740.1550       0.060312
       1271.50         8.5000        56.3750        25.0743        17.1770       0.052400         5.2651       0.033244         2.6718      2748.9048       0.060816
       1272.00         8.5000        55.3750        25.3615        16.7660       0.053300         5.3094       0.029827         2.6877      2761.3501       0.061572
       1272.50         8.5000        55.1875        26.5999        16.3670       0.056200         5.2389       0.030090         2.6855      2762.4373       0.064008
       1273.00         8.5000        55.1875        28.1052        16.3290       0.059700         5.2109       0.029834         2.6825      2763.6633       0.066948
       1273.50         8.5000        56.0000        28.9486        16.2920       0.062400         5.3182       0.031923         2.6754      2761.3235       0.069216
       1274.00         8.5000        57.0000        29.4588        16.4740       0.064900         5.1901       0.035497         2.6660      2757.6970       0.071316
       1274.50         8.5000        57.7812        29.5890        16.6590       0.062300         5.0279       0.038430         2.6447      2739.2681       0.069132
       1275.00         8.5000        58.0000        29.5662        17.0510       0.058600         5.1820       0.039379         2.6321      2726.0891       0.066024
       1275.50         8.5000        57.5938        29.7493        17.4600       0.055500         5.2603       0.036760         2.6391      2727.9412       0.063420
       1276.00         8.5000        56.5938        29.9891        18.0180       0.052500         5.2885       0.033941         2.6419      2726.9509       0.060900
       1276.50         8.5000        55.7812        29.8608        18.6050       0.052300         5.3228       0.034210         2.6378      2723.7192       0.060732
       1277.00         8.5000        55.5938        29.6454        19.1960       0.052900         5.0315       0.034617         2.6375      2724.1011       0.061236
       1277.50         8.5000        56.1875        30.1984        19.8040       0.053600         4.9703       0.033360         2.6434      2729.1626       0.061824
       1278.00         8.5000        56.7812        31.0313        20.4260       0.054300         5.1147       0.031111         2.6561      2739.2283       0.062412
       1278.50         8.5000        56.7812        30.7754        21.0670       0.052500         5.3413       0.025892         2.6834      2757.5063       0.060900
       1279.00         8.5000        56.7812        29.8460        21.5310       0.049600         5.3289       0.027939         2.6701      2745.0059       0.058435
       1279.50         8.5000        56.1875        29.1589        21.9370       0.044200         5.0541       0.027969         2.6643      2735.9285       0.053514
       1280.00         8.5000        56.3750        28.7355        22.4030       0.037500         5.3076       0.027211         2.6609      2728.4124       0.047498
       1280.50         8.5000        56.1875        29.2108        22.9090       0.034900         5.3663       0.025459         2.6609      2726.2930       0.045171
       1281.00         8.5000        56.3750        30.1952        23.2030       0.035100         5.4083       0.024457         2.6617      2727.0703       0.045350
       1281.50         8.5000        57.1875        30.4938        23.3790       0.038100         5.3406       0.028681         2.6499      2720.4187       0.048036
       1282.00         8.5000        58.3750        30.3137        23.6570       0.043200         5.1680       0.033808         2.6428      2718.7844       0.052602
       1282.50         8.5000        59.5938        30.3146        24.0050       0.047000         5.1249       0.035411         2.6448      2723.6855       0.056066
       1283.00         8.5000        60.5938        30.3943        24.5680       0.049500         5.2119       0.035489         2.6505      2730.3584       0.058344
       1283.50         8.5000        60.3750        30.0991        25.3230       0.051900         5.1964       0.034052         2.6608      2740.3857       0.060396
       1284.00         8.5000        59.3750        29.5560        25.8380       0.054300         5.1364       0.033475         2.6652      2745.9229       0.062412
       1284.50         8.5000        58.1875        29.2023        26.1300       0.061500         5.2980       0.035545         2.6639      2752.2571       0.068460
       1285.00         8.5000        57.1875        29.0218        25.8750       0.072600         5.3453       0.040497         2.6520      2756.2412       0.077784
       1285.50         8.5000        56.7812        29.1218        25.1180       0.081500         5.1506       0.048617         2.6360      2753.9148       0.085260
       1286.00         8.5000        57.1875        29.4260        23.4300       0.085000         5.1787       0.052321         2.6239      2748.6646       0.088200
       1286.50         8.5000        57.1875        29.3628        21.0430       0.087500         5.1598       0.058382         2.5942      2730.1123       0.090300
       1287.00         8.5000        57.3750        29.0085        19.2140       0.084400         5.0261       0.056907         2.6025      2733.3828       0.087696
       1287.50         8.5000        56.7812        29.0495        17.6150       0.080200         5.1433       0.051097         2.6206      2742.6135       0.084168
       1288.00         8.5000        57.3750        29.4317        16.7160       0.077100         5.1099       0.048147         2.6303      2745.9072       0.081564
       1288.50         8.5000        58.7812        29.4085        16.0220       0.073700         5.1896       0.045684         2.6386      2748.1003       0.078708
       1289.00         8.5000        60.0000        28.9474        15.4810       0.072600         5.2229       0.049120         2.6396      2747.6128       0.077784
       1289.50         8.5000        61.1875        28.2097        14.9930       0.072400         5.2526       0.050965         2.6394      2747.2632       0.077616
       1290.00         8.5000        60.7812        27.2791        14.7180       0.074800         5.1697       0.050831         2.6529      2759.2031       0.079632
       1290.50         8.5000        60.0000        27.1613        14.5370       0.078400         5.2581       0.052121         2.6526      2762.8640       0.082656
       1291.00         8.5000        59.1875        27.7999        14.2380       0.082200         5.0501       0.051713         2.6416      2758.3801       0.085848
       1291.50         8.5000        59.0000        27.9137        13.8920       0.086100         5.0773       0.054174         2.6350      2757.1475       0.089124
       1292.00         8.5000        59.1875        27.5053        13.5970       0.088500         5.0954       0.056453         2.6296      2755.2322       0.091140
       1292.50         8.5000        59.3750        27.3553        13.3330       0.091300         4.9619       0.058532         2.6283      2756.3340       0.093492
       1293.00         8.5000        59.3750        27.1046        13.2350       0.090500         5.0582       0.058058         2.6280      2755.3855       0.092820
       1293.50         8.5000        58.5938        26.2866        13.2280       0.087800         5.1882       0.056220         2.6324      2756.6208       0.090552
