~Version Information Block
VERS .                  2.0:  CWLS LOG ASCII STANDARD - VERSION 2.0
WRAP .                   NO:  One line per depth step
~Well Information Block
#MNEM.UNIT        Data Type   Information
#---------- ----------------  -----------
STRT .FT            1000.00:  START DEPTH
STOP .FT            1302.50:  STOP DEPTH
STEP .FT               0.50:  STEP
NULL .              -999.25:  NULL VALUE
COMP .                     :  COMPANY
WELL .                CO3_1:  WELL
FLD  .                     :  FIELD
LOC  .                     :  LOCATION
CTRY .                     :  COUNTRY
STAT .                     :  STATE
CNTY .                     :  COUNTY
SRVC .                     :  SERVICE COMPANY
DATE .                     :  DATE
API  .                     :  API NUMBER
UWI  .                     :  UNIQUE WELL ID
~Curve Information Block
#MNEM.UNIT         API CODE   Curve Description
#---------- ----------------  -----------------
DEPTH.FT                   :  
CALI .IN                   :  GR*0 + 8.5
DT   .US/F                 :  DT+1
GR   .GAPI                 :  Created using text insert
ILD  .OHMM                 :  Created using text insert
NPHI .V/V                  :  Created using text insert
PEF  .B/E                  :  PEF-5
PHIT .V/V                  :  Total Porosity
RHOB .G/C3                 :  Created using text insert
RHOMAA.G/C3                 :  Apparent matrix density
TNPH .V/V                  :  Neutron porosity log
~Parameter Information Block
#MNEM.UNIT            Value   Description
#---------- ----------------  -----------
A    .                    1:  Tortuosity constant
ANAL_DATE.     26-Mar-2021 11:17:11:  Analysis Date
ANAL_USERID.                craig:  Analysis User Identifier
SOCN .IN                0.5:  Standoff for neutron tool
TLI  .FT               1000:  Top log interval (MD)
TLT  .DEGF              165:  Top log interval temperature
~Other Information Block
# 
~A       DEPTH           CALI             DT             GR            ILD           NPHI            PEF           PHIT           RHOB         RHOMAA           TNPH 
# ...
       1171.50         8.5000        61.1875        18.4718        18.9567       0.149425         5.0799       0.110884         2.5239      2742.9358       0.146423
       1172.00         8.5000        61.5938        18.4198        18.4845       0.146125         4.7890       0.111515         2.5245      2740.3315       0.143315
       1172.50         8.5000        61.3750        17.8597        18.2740       0.143550         5.1248       0.107162         2.5343      2744.9211       0.140889
       1173.00         8.5000        61.3750        17.1895        18.0870       0.138725         5.0175       0.103136         2.5521      2751.7922       0.136472
       1173.50         8.5000        61.3750        16.3579        18.2700       0.134875         4.9025       0.099450         2.5717      2760.2502       0.132977
       1174.00         8.5000        60.7812        16.2985        18.4752       0.130775         4.8996       0.093840         2.5877      2765.5354       0.129254
       1174.50         8.5000        60.3750        17.1763        19.0226       0.127825         5.0249       0.091657         2.5803      2756.9077       0.126575
       1175.00         8.5000        60.0000        17.6596        19.9589       0.125000         5.0988       0.091075         2.5681      2745.3835       0.124010
       1175.50         8.5000        60.5938        17.6651        21.0271       0.120575         4.8716       0.092034         2.5570      2732.5752       0.119992
       1176.00         8.5000        60.1875        17.7852        22.2236       0.119500         4.9612       0.090799         2.5559      2730.6223       0.119016
       1176.50         8.5000        60.3750        17.9340        22.4609       0.116800         5.1818       0.089036         2.5525      2725.2839       0.116564
       1177.00         8.5000        60.1875        18.1406        22.5550       0.114000         4.9774       0.086113         2.5650      2730.8611       0.114022
       1177.50         8.5000        60.3750        18.6538        21.9261       0.111275         5.1341       0.081717         2.5810      2739.1733       0.111548
       1178.00         8.5000        60.7812        19.4011        21.3696       0.109875         4.9944       0.078849         2.5971      2748.7759       0.110276
       1178.50         8.5000        61.0000        20.1371        20.9534       0.107625         5.1383       0.077349         2.6142      2758.3477       0.108233
       1179.00         8.5000        60.7812        20.3423        20.1214       0.105825         5.2862       0.073337         2.6318      2768.5854       0.106599
       1179.50         8.5000        60.0000        20.1571        19.5893       0.102875         5.1689       0.070863         2.6370      2769.9255       0.103921
       1180.00         8.5000        59.0000        19.7034        19.7084       0.100250         5.2720       0.066309         2.6368      2767.8843       0.101537
       1180.50         8.5000        58.5938        19.0883        19.5265       0.100400         5.1298       0.067844         2.6316      2764.5586       0.101673
       1181.00         8.5000        58.3750        18.5603        20.3576       0.101325         5.0890       0.069669         2.6248      2760.6614       0.102513
       1181.50         8.5000        59.0000        18.6269        20.7479       0.104900         5.0357       0.073575         2.6113      2754.1724       0.105759
       1182.00         8.5000        60.1875        18.9676        21.4406       0.107300         5.1421       0.076492         2.5997      2748.3892       0.107938
       1182.50         8.5000        61.0000        19.1595        22.4301       0.109700         5.1074       0.079183         2.5907      2744.3235       0.110118
       1183.00         8.5000        61.3750        20.5204        23.4658       0.112400         5.1210       0.079705         2.5884      2745.0747       0.112569
       1183.50         8.5000        61.5938        21.0166        24.6898       0.113600         4.9133       0.080958         2.5890      2746.7068       0.113659
       1184.00         8.5000        62.5938        21.9103        25.0711       0.117950         5.1496       0.083381         2.5962      2755.9575       0.117609
       1184.50         8.5000        63.1875        22.4174        25.3216       0.119050         5.1822       0.083622         2.5977      2758.2009       0.118607
       1185.00         8.5000        63.3750        22.6791        25.2760       0.119425         5.0513       0.083662         2.6019      2761.3438       0.118948
       1185.50         8.5000        63.1875        22.4709        24.8655       0.119900         5.0044       0.084125         2.6030      2762.6638       0.119379
       1186.00         8.5000        62.5938        22.2303        24.7029       0.120675         5.2200       0.083381         2.5937      2757.3516       0.120083
       1186.50         8.5000        61.3750        21.5836        24.4309       0.121450         5.1262       0.083019         2.5923      2757.3318       0.120787
       1187.00         8.5000        60.7812        21.3911        24.8271       0.121000         5.0220       0.085914         2.5740      2744.5925       0.120378
       1187.50         8.5000        60.1875        21.0788        25.0510       0.119250         5.0478       0.087715         2.5539      2729.0391       0.118789
       1188.00         8.5000        59.5938        21.3734        26.2013       0.117375         5.1118       0.086458         2.5503      2724.4507       0.117086
       1188.50         8.5000        59.7812        21.5199        26.9558       0.115425         4.8488       0.087189         2.5476      2720.5264       0.115316
       1189.00         8.5000        59.7812        21.7629        27.0698       0.112800         4.8216       0.085424         2.5506      2719.9666       0.112932
       1189.50         8.5000        60.0000        21.5511        27.0936       0.112025         4.9236       0.085294         2.5487      2718.0996       0.112229
       1190.00         8.5000        60.1875        20.8337        26.9937       0.110475         4.8926       0.086288         2.5445      2713.5188       0.110821
       1190.50         8.5000        60.0000        20.2493        27.2882       0.108675         5.0376       0.084615         2.5491      2715.3149       0.109187
       1191.00         8.5000        60.1875        20.3206        26.5057       0.107225         4.9350       0.083295         2.5542      2717.3704       0.107870
       1191.50         8.5000        60.3750        20.9551        25.6101       0.107675         5.0063       0.082119         2.5581      2720.4106       0.108279
       1192.00         8.5000        60.1875        21.0141        24.6353       0.108000         4.9074       0.081371         2.5647      2725.2397       0.108574
       1192.50         8.5000        60.1875        21.2133        23.3099       0.105100         5.1621       0.077667         2.5738      2728.9575       0.105941
       1193.00         8.5000        60.0000        21.0233        22.8363       0.102125         4.8210       0.076771         2.5799      2730.8894       0.103239
       1193.50         8.5000        59.7812        21.5743        22.1201       0.101500         4.9019       0.074548         2.5866      2735.0486       0.102672
       1194.00         8.5000        59.7812        22.0040        22.2384       0.103000         5.1237       0.074038         2.5854      2735.2893       0.104034
       1194.50         8.5000        60.3750        22.4559        22.3657       0.104725         5.1031       0.074034         2.5899      2739.6682       0.105600
       1195.00         8.5000        61.0000        22.0448        22.0147       0.106800         5.0003       0.077162         2.5834      2737.0103       0.107484
       1195.50         8.5000        61.3750        21.7906        22.1009       0.106750         4.9603       0.078571         2.5784      2733.6086       0.107439
