~Version Information Block
VERS .                  2.0:  CWLS LOG ASCII STANDARD - VERSION 2.0
WRAP .                   NO:  One line per depth step
~Well Information Block
#MNEM.UNIT        Data Type   Information
#---------- ----------------  -----------
STRT .FT            1000.00:  START DEPTH
STOP .FT            1302.50:  STOP DEPTH
STEP .FT               0.50:  STEP
NULL .              -999.25:  NULL VALUE
COMP .                     :  COMPANY
WELL .                CO3_1:  WELL
FLD  .                     :  FIELD
LOC  .                     :  LOCATION
CTRY .                     :  COUNTRY
STAT .                     :  STATE
CNTY .                     :  COUNTY
SRVC .                     :  SERVICE COMPANY
DATE .                     :  DATE
API  .                     :  API NUMBER
UWI  .                     :  UNIQUE WELL ID
~Curve Information Block
#MNEM.UNIT         API CODE   Curve Description
#---------- ----------------  -----------------
DEPTH.FT                   :  
CALI .IN                   :  GR*0 + 8.5
DT   .US/F                 :  DT+1
GR   .GAPI                 :  Created using text insert
ILD  .OHMM                 :  Created using text insert
NPHI .V/V                  :  Created using text insert
PEF  .B/E                  :  PEF-5
PHIT .V/V                  :  Total Porosity
RHOB .G/C3                 :  Created using text insert
RHOMAA.G/C3                 :  Apparent matrix density
TNPH .V/V                  :  Neutron porosity log
~Parameter Information Block
#MNEM.UNIT            Value   Description
#---------- ----------------  -----------
A    .                    1:  Tortuosity constant
ANAL_DATE.     26-Mar-2021 11:17:11:  Analysis Date
ANAL_USERID.                craig:  Analysis User Identifier
SOCN .IN                0.5:  Standoff for neutron tool
TLI  .FT               1000:  Top log interval (MD)
TLT  .DEGF              165:  Top log interval temperature
~Other Information Block
# 
~A       DEPTH           CALI             DT             GR            ILD           NPHI            PEF           PHIT           RHOB         RHOMAA           TNPH 
       1000.00         8.5000        52.7812        11.6684       724.4590       0.026975         5.8378       0.005606         2.8684      2878.7117       0.038077
       1000.50         8.5000        51.5938        12.1905      1331.0160       0.037000         5.6807       0.005985         2.8639      2878.3311       0.047051
       1001.00         8.5000        51.3750        12.6730      1125.6470       0.052225         5.8405       0.012888         2.8442      2870.5955       0.060669
       1001.50         8.5000        51.3750        13.4347       545.6070       0.072550         5.6764       0.027151         2.8054      2858.2668       0.077742
       1002.00         8.5000        52.3750        14.0415       367.0790       0.095200         5.4936       0.042898         2.7419      2832.2195       0.096952
       1002.50         8.5000        54.1875        15.1091       255.5710       0.120025         5.1647       0.059693         2.6755      2808.4558       0.119493
       1003.00         8.5000        56.3750        16.9426       158.5860       0.146550         5.0673       0.083180         2.5996      2788.3232       0.143715
       1003.50         8.5000        59.0000        19.4341       146.8770       0.167800         5.0010       0.104119         2.5280      2760.0117       0.163733
       1004.00         8.5000        60.7812        21.4072       160.0690       0.182950         4.8489       0.128589         2.4669      2737.3257       0.178004
       1004.50         8.5000        63.5938        22.6302       149.1660       0.181625         4.6432       0.140556         2.4438      2719.7900       0.176756
       1005.00         8.5000        65.1875        22.9958       145.8610       0.182125         4.6530       0.144752         2.4288      2710.2053       0.177227
       1005.50         8.5000        68.3750        23.4024       106.0040       0.195200         4.6045       0.160828         2.3993      2708.9341       0.189727
       1006.00         8.5000        72.0000        23.6041        79.3625       0.211125         4.2965       0.181281         2.3661      2705.4805       0.205811
       1006.50         8.5000        73.7500        23.5650        62.9572       0.230475         4.5530       0.193231         2.3424      2710.1162       0.225355
       1007.00         8.5000        75.7500        22.4364        52.8659       0.239300         4.3424       0.205825         2.3329      2717.1472       0.234268
       1007.50         8.5000        76.3750        21.4672        48.1616       0.242525         4.2529       0.214332         2.3167      2710.9958       0.237527
       1008.00         8.5000        76.0000        20.7571        44.7362       0.250025         4.2420       0.218165         2.3142      2720.1433       0.245552
       1008.50         8.5000        77.5625        20.4395        46.4794       0.257125         4.1933       0.224477         2.3093      2727.7886       0.253149
       1009.00         8.5000        78.3750        19.9185        47.7568       0.259600         4.1617       0.229575         2.2989      2723.3945       0.255797
       1009.50         8.5000        79.0000        19.1668        49.3113       0.260700         4.3518       0.228185         2.2973      2723.6016       0.256974
       1010.00         8.5000        78.7500        18.7591        49.5552       0.260825         4.2081       0.230104         2.2983      2724.4365       0.257108
       1010.50         8.5000        78.1875        18.9109        48.1555       0.261075         4.4721       0.224308         2.3026      2728.2251       0.257375
       1011.00         8.5000        77.3750        19.5421        50.6789       0.258375         4.3627       0.223999         2.3029      2724.7952       0.254486
       1011.50         8.5000        76.1875        20.6656        51.7012       0.256975         4.2014       0.220668         2.3148      2731.6260       0.252988
       1012.00         8.5000        76.1875        21.4737        60.7531       0.259100         4.2890       0.218515         2.3179      2736.6191       0.255262
       1012.50         8.5000        76.7500        21.8168        63.7725       0.261350         4.3109       0.220597         2.3128      2735.6365       0.257670
       1013.00         8.5000        76.7500        21.9725        71.1721       0.260775         4.2842       0.221672         2.3104      2733.2659       0.257054
       1013.50         8.5000        77.3750        21.0596        76.2288       0.261475         4.3199       0.222895         2.3092      2732.9753       0.257803
       1014.00         8.5000        78.3750        19.9940        69.6658       0.262700         4.3646       0.222888         2.3135      2737.8647       0.259114
       1014.50         8.5000        78.7500        18.9606        68.4443       0.264675         4.1163       0.228007         2.3141      2740.9546       0.261227
       1015.00         8.5000        78.7500        18.6796        63.0759       0.260125         4.2676       0.224195         2.3152      2735.9658       0.256359
       1015.50         8.5000        78.5625        18.9251        61.4550       0.256150         4.3077       0.220271         2.3218      2735.3252       0.252106
       1016.00         8.5000        77.7500        18.9700        57.3543       0.248275         4.4834       0.213992         2.3239      2725.5632       0.243679
       1016.50         8.5000        77.1875        19.3492        52.2783       0.249850         4.1988       0.217225         2.3259      2728.4368       0.245365
       1017.00         8.5000        78.3750        19.6396        48.5977       0.251025         4.4229       0.215845         2.3257      2730.9712       0.246622
       1017.50         8.5000        79.5625        19.9432        43.4134       0.254975         4.2559       0.222288         2.3190      2731.4727       0.250848
       1018.00         8.5000        80.1875        20.4331        41.5355       0.254100         4.3738       0.221051         2.3171      2728.9209       0.249912
       1018.50         8.5000        79.5625        20.5245        38.1037       0.257550         4.4406       0.220437         2.3170      2734.0889       0.253603
       1019.00         8.5000        79.3750        21.1500        36.8844       0.258575         4.2111       0.223646         2.3174      2735.6831       0.254700
       1019.50         8.5000        78.3750        20.8657        36.9534       0.262575         4.5303       0.220253         2.3126      2737.1414       0.258980
       1020.00         8.5000        77.5625        21.2264        35.9893       0.262400         4.4833       0.220985         2.3084      2733.9143       0.258793
       1020.50         8.5000        76.5625        21.0218        37.0939       0.258975         4.0713       0.224841         2.3103      2731.0305       0.255128
       1021.00         8.5000        74.7500        21.1135        36.3692       0.253000         4.3365       0.217844         2.3102      2722.4309       0.248735
       1021.50         8.5000        72.7500        20.7506        37.1635       0.243675         4.4378       0.207124         2.3213      2716.3369       0.238757
       1022.00         8.5000        70.7500        20.6931        37.4254       0.238925         4.4031       0.196745         2.3436      2724.3330       0.233889
       1022.50         8.5000        69.7500        20.5837        38.4607       0.238025         4.4810       0.192048         2.3552      2731.4602       0.232980
       1023.00         8.5000        68.3750        20.6682        42.3640       0.234450         4.3710       0.191536         2.3530      2724.1177       0.229369
       1023.50         8.5000        69.1875        20.3899        41.0702       0.235325         4.3144       0.193577         2.3534      2725.7861       0.230253
       1024.00         8.5000        70.5625        20.4925        41.4238       0.241475         4.5094       0.195977         2.3491      2732.6602       0.236465
