~Version Information Block
VERS .                  2.0:  CWLS LOG ASCII STANDARD - VERSION 2.0
WRAP .                   NO:  One line per depth step
~Well Information Block
#MNEM.UNIT        Data Type   Information
#---------- ----------------  -----------
STRT .FT            1000.00:  START DEPTH
STOP .FT            1302.50:  STOP DEPTH
STEP .FT               0.50:  STEP
NULL .              -999.25:  NULL VALUE
COMP .                     :  COMPANY
WELL .                CO3_1:  WELL
FLD  .                     :  FIELD
LOC  .                     :  LOCATION
CTRY .                     :  COUNTRY
STAT .                     :  STATE
CNTY .                     :  COUNTY
SRVC .                     :  SERVICE COMPANY
DATE .                     :  DATE
API  .                     :  API NUMBER
UWI  .                     :  UNIQUE WELL ID
~Curve Information Block
#MNEM.UNIT         API CODE   Curve Description
#---------- ----------------  -----------------
DEPTH.FT                   :  
CALI .IN                   :  GR*0 + 8.5
DT   .US/F                 :  DT+1
GR   .GAPI                 :  Created using text insert
ILD  .OHMM                 :  Created using text insert
NPHI .V/V                  :  Created using text insert
PEF  .B/E                  :  PEF-5
PHIT .V/V                  :  Total Porosity
RHOB .G/C3                 :  Created using text insert
RHOMAA.G/C3                 :  Apparent matrix density
TNPH .V/V                  :  Neutron porosity log
~Parameter Information Block
#MNEM.UNIT            Value   Description
#---------- ----------------  -----------
A    .                    1:  Tortuosity constant
ANAL_DATE.     26-Mar-2021 11:17:11:  Analysis Date
ANAL_USERID.                craig:  Analysis User Identifier
SOCN .IN                0.5:  Standoff for neutron tool
TLI  .FT               1000:  Top log interval (MD)
TLT  .DEGF              165:  Top log interval temperature
~Other Information Block
# 
~A       DEPTH           CALI             DT             GR            ILD           NPHI            PEF           PHIT           RHOB         RHOMAA           TNPH 
# ...
       1196.00         8.5000        61.3750        21.5465        21.6442       0.106125         5.0476       0.077364         2.5840      2736.8682       0.106872
       1196.50         8.5000        60.7812        21.4950        21.8460       0.104075         5.2088       0.074032         2.5951      2742.6550       0.105010
       1197.00         8.5000        60.5938        21.0345        21.9756       0.104800         4.8752       0.075597         2.5953      2743.4246       0.105668
       1197.50         8.5000        60.7812        21.1819        21.7331       0.106725         4.9973       0.075964         2.5945      2744.5127       0.107416
       1198.00         8.5000        60.7812        21.7041        21.5379       0.106825         5.0921       0.074658         2.5979      2746.8733       0.107507
       1198.50         8.5000        61.0000        22.2083        20.8437       0.106225         5.0968       0.075242         2.5903      2741.2720       0.106962
       1199.00         8.5000        60.5938        22.2676        20.5685       0.101150         5.0576       0.074308         2.5815      2731.3313       0.102354
       1199.50         8.5000        60.0000        22.1007        20.2011       0.094325         5.0077       0.071428         2.5822      2726.3198       0.096157
       1200.00         8.5000        59.1875        21.5128        20.3311       0.088250         5.0586       0.067675         2.5904      2727.5447       0.090930
       1200.50         8.5000        58.7812        20.5243        20.7205       0.086250         5.0522       0.065719         2.6027      2734.5498       0.089250
       1201.00         8.5000        58.5938        19.2357        20.9466       0.085625         5.2426       0.064418         2.6135      2741.4929       0.088725
       1201.50         8.5000        58.5938        18.3995        21.2691       0.084775         5.2338       0.063794         2.6273      2750.3088       0.088011
       1202.00         8.5000        59.0000        18.1367        21.2355       0.084650         4.9137       0.068170         2.6244      2748.2146       0.087906
       1202.50         8.5000        59.1875        18.5022        21.4523       0.086150         5.1428       0.067467         2.6146      2742.7070       0.089166
       1203.00         8.5000        59.3750        18.9878        21.8116       0.085350         4.9672       0.068556         2.5953      2728.7043       0.088494
       1203.50         8.5000        59.1875        19.0791        22.4634       0.084600         5.0289       0.067479         2.5972      2729.3340       0.087864
       1204.00         8.5000        59.0000        18.6218        23.2424       0.084325         5.0625       0.065961         2.6089      2737.2839       0.087633
       1204.50         8.5000        58.5938        18.1318        23.5460       0.084625         5.2426       0.064008         2.6269      2749.9109       0.087885
       1205.00         8.5000        58.3750        17.7295        24.0716       0.083450         5.1592       0.064298         2.6367      2755.9556       0.086898
       1205.50         8.5000        58.0000        17.5018        24.2011       0.080725         5.2164       0.061713         2.6358      2753.1638       0.084609
       1206.00         8.5000        57.7812        18.1970        24.3591       0.080075         5.1208       0.059720         2.6428      2757.3301       0.084063
       1206.50         8.5000        58.1875        19.0363        23.6707       0.079850         5.2469       0.059984         2.6365      2752.7554       0.083874
       1207.00         8.5000        58.7812        19.8177        22.6311       0.081600         4.9627       0.063284         2.6230      2744.5691       0.085344
       1207.50         8.5000        58.7812        20.4586        21.5508       0.082775         4.8473       0.064764         2.6046      2733.2319       0.086331
       1208.00         8.5000        58.7812        20.8928        20.1008       0.085525         5.0803       0.064145         2.6085      2737.9966       0.088641
       1208.50         8.5000        58.3750        21.3612        18.7175       0.086100         4.9402       0.063129         2.6152      2743.0757       0.089124
       1209.00         8.5000        58.0000        21.6355        17.4411       0.087000         5.1522       0.062685         2.6131      2742.3022       0.089880
       1209.50         8.5000        57.1875        20.8495        16.1918       0.086775         4.9956       0.064470         2.6054      2736.8384       0.089691
       1210.00         8.5000        56.1875        20.8803        15.5559       0.087075         5.0557       0.064282         2.6010      2734.0017       0.089943
       1210.50         8.5000        56.0000        21.3407        15.0558       0.085925         5.1649       0.062544         2.6035      2734.8921       0.088977
       1211.00         8.5000        56.7812        22.1239        15.0788       0.084625         5.3108       0.060880         2.6075      2736.6228       0.087885
       1211.50         8.5000        58.0000        21.9178        15.2888       0.082900         5.1421       0.062403         2.6028      2732.1130       0.086436
       1212.00         8.5000        59.0000        20.8697        15.8207       0.082675         5.1542       0.062905         2.6083      2735.7168       0.086247
       1212.50         8.5000        59.5938        20.6776        16.6223       0.082075         5.0479       0.065792         2.6174      2741.1528       0.085743
       1213.00         8.5000        59.0000        20.2712        17.3777       0.081925         5.1936       0.062649         2.6252      2746.4041       0.085617
       1213.50         8.5000        58.5938        20.2195        18.6478       0.083500         5.0518       0.061348         2.6249      2748.0266       0.086940
       1214.00         8.5000        58.5938        20.2390        20.1295       0.087300         5.1367       0.061769         2.6293      2753.6836       0.090132
       1214.50         8.5000        58.3750        20.4960        21.7596       0.090575         5.2059       0.061673         2.6340      2759.0745       0.092883
       1215.00         8.5000        59.3750        20.8772        23.5431       0.093475         5.2356       0.064939         2.6375      2763.6121       0.095385
       1215.50         8.5000        60.1875        20.7850        24.2145       0.098550         5.0696       0.069149         2.6380      2767.7925       0.099993
       1216.00         8.5000        60.3750        21.0538        24.2348       0.101975         5.4936       0.070149         2.6359      2768.7727       0.103103
       1216.50         8.5000        60.0000        21.3627        23.0700       0.098675         5.0745       0.069139         2.6320      2763.8669       0.100107
       1217.00         8.5000        59.5938        22.2682        22.2591       0.094375         5.0845       0.064313         2.6245      2755.4006       0.096203
       1217.50         8.5000        59.5938        22.8288        21.1727       0.092375         5.1574       0.064442         2.6142      2747.0938       0.094395
       1218.00         8.5000        60.3750        23.2545        19.6270       0.091400         5.1603       0.066065         2.6142      2746.3872       0.093576
       1218.50         8.5000        61.3750        22.8514        18.9084       0.092450         5.0417       0.069097         2.6160      2748.3123       0.094458
       1219.00         8.5000        61.7812        22.3591        17.8014       0.092075         4.9463       0.070321         2.6165      2748.4600       0.094143
       1219.50         8.5000        61.3750        22.1100        16.9916       0.093425         5.1763       0.070144         2.6153      2748.5112       0.095340
       1220.00         8.5000        62.0000        20.3786        16.5830       0.099667         5.0098       0.074981         2.6193      2756.0027       0.101007
